COD_DPTO,NOM_DPTO,COD_MPIO,NOM_MPIO,TIPO,LATITUD,LONGITUD,Geo Municipio
5,ANTIOQUIA,5001,MEDELLÍN,Municipio,6.257590259,-75.61103107,POINT (-75.61103107 6.257590259)
5,ANTIOQUIA,5002,ABEJORRAL,Municipio,5.803728154,-75.43847353,POINT (-75.43847353 5.803728154)
5,ANTIOQUIA,5004,ABRIAQUÍ,Municipio,6.627569378,-76.08597756,POINT (-76.08597756 6.627569378)
5,ANTIOQUIA,5021,ALEJANDRÍA,Municipio,6.365534125,-75.09059702,POINT (-75.09059702 6.365534125)
5,ANTIOQUIA,5030,AMAGÁ,Municipio,6.032921994,-75.7080031,POINT (-75.7080031 6.032921994)
5,ANTIOQUIA,5031,AMALFI,Municipio,6.977788843,-74.9812393,POINT (-74.9812393 6.977788843)
5,ANTIOQUIA,5034,ANDES,Municipio,5.604993248,-75.94128391,POINT (-75.94128391 5.604993248)
5,ANTIOQUIA,5036,ANGELÓPOLIS,Municipio,6.121430303,-75.71594966,POINT (-75.71594966 6.121430303)
5,ANTIOQUIA,5038,ANGOSTURA,Municipio,6.861498764,-75.358316,POINT (-75.358316 6.861498764)
5,ANTIOQUIA,5040,ANORÍ,Municipio,7.193110778,-75.10848954,POINT (-75.10848954 7.193110778)
5,ANTIOQUIA,5042,SANTA FÉ DE ANTIOQUIA,Municipio,6.535711576,-75.90426658,POINT (-75.90426658 6.535711576)
5,ANTIOQUIA,5044,ANZÁ,Municipio,6.293546613,-75.91736927,POINT (-75.91736927 6.293546613)
5,ANTIOQUIA,5045,APARTADÓ,Municipio,7.86047815,-76.58236264,POINT (-76.58236264 7.86047815)
5,ANTIOQUIA,5051,ARBOLETES,Municipio,8.611395262,-76.41478317,POINT (-76.41478317 8.611395262)
5,ANTIOQUIA,5055,ARGELIA,Municipio,5.708114524,-75.09469795,POINT (-75.09469795 5.708114524)
5,ANTIOQUIA,5059,ARMENIA,Municipio,6.163683758,-75.80995528,POINT (-75.80995528 6.163683758)
5,ANTIOQUIA,5079,BARBOSA,Municipio,6.443417935,-75.32924085,POINT (-75.32924085 6.443417935)
5,ANTIOQUIA,5086,BELMIRA,Municipio,6.665853953,-75.68621659,POINT (-75.68621659 6.665853953)
5,ANTIOQUIA,5088,BELLO,Municipio,6.358841086,-75.58973588,POINT (-75.58973588 6.358841086)
5,ANTIOQUIA,5091,BETANIA,Municipio,5.727081285,-75.98689107,POINT (-75.98689107 5.727081285)
5,ANTIOQUIA,5093,BETULIA,Municipio,6.185783612,-75.95649246,POINT (-75.95649246 6.185783612)
5,ANTIOQUIA,5101,CIUDAD BOLÍVAR,Municipio,5.840995666,-76.01065253,POINT (-76.01065253 5.840995666)
5,ANTIOQUIA,5107,BRICEÑO,Municipio,7.111788462,-75.56223474,POINT (-75.56223474 7.111788462)
5,ANTIOQUIA,5113,BURITICÁ,Municipio,6.80906489,-75.91206595,POINT (-75.91206595 6.80906489)
5,ANTIOQUIA,5120,CÁCERES,Municipio,7.665155105,-75.22369744,POINT (-75.22369744 7.665155105)
5,ANTIOQUIA,5125,CAICEDO,Municipio,6.423463639,-75.99351498,POINT (-75.99351498 6.423463639)
5,ANTIOQUIA,5129,CALDAS,Municipio,6.054446841,-75.62642674,POINT (-75.62642674 6.054446841)
5,ANTIOQUIA,5134,CAMPAMENTO,Municipio,7.036017478,-75.28766178,POINT (-75.28766178 7.036017478)
5,ANTIOQUIA,5138,CAÑASGORDAS,Municipio,6.814950023,-76.02689632,POINT (-76.02689632 6.814950023)
5,ANTIOQUIA,5142,CARACOLÍ,Municipio,6.33797388,-74.73354817,POINT (-74.73354817 6.33797388)
5,ANTIOQUIA,5145,CARAMANTA,Municipio,5.555275296,-75.63082096,POINT (-75.63082096 5.555275296)
5,ANTIOQUIA,5147,CAREPA,Municipio,7.757967437,-76.64374657,POINT (-76.64374657 7.757967437)
5,ANTIOQUIA,5148,EL CARMEN DE VIBORAL,Municipio,5.978078841,-75.2635361,POINT (-75.2635361 5.978078841)
5,ANTIOQUIA,5150,CAROLINA,Municipio,6.754821442,-75.30590654,POINT (-75.30590654 6.754821442)
5,ANTIOQUIA,5154,CAUCASIA,Municipio,7.867941792,-75.03501824,POINT (-75.03501824 7.867941792)
5,ANTIOQUIA,5172,CHIGORODÓ,Municipio,7.631665644,-76.63964213,POINT (-76.63964213 7.631665644)
5,ANTIOQUIA,5190,CISNEROS,Municipio,6.550065431,-75.08254116,POINT (-75.08254116 6.550065431)
5,ANTIOQUIA,5197,COCORNÁ,Municipio,6.005593074,-75.16015403,POINT (-75.16015403 6.005593074)
5,ANTIOQUIA,5206,CONCEPCIÓN,Municipio,6.376106187,-75.21785901,POINT (-75.21785901 6.376106187)
5,ANTIOQUIA,5209,CONCORDIA,Municipio,6.057468678,-75.90014678,POINT (-75.90014678 6.057468678)
5,ANTIOQUIA,5212,COPACABANA,Municipio,6.351882893,-75.50075633,POINT (-75.50075633 6.351882893)
5,ANTIOQUIA,5234,DABEIBA,Municipio,6.992243782,-76.31426328,POINT (-76.31426328 6.992243782)
5,ANTIOQUIA,5237,DONMATÍAS,Municipio,6.492403905,-75.42227687,POINT (-75.42227687 6.492403905)
5,ANTIOQUIA,5240,EBÉJICO,Municipio,6.326444922,-75.78331175,POINT (-75.78331175 6.326444922)
5,ANTIOQUIA,5250,EL BAGRE,Municipio,7.704633351,-74.66427726,POINT (-74.66427726 7.704633351)
5,ANTIOQUIA,5264,ENTRERRÍOS,Municipio,6.594656004,-75.55913083,POINT (-75.55913083 6.594656004)
5,ANTIOQUIA,5266,ENVIGADO,Municipio,6.154394922,-75.54686779,POINT (-75.54686779 6.154394922)
5,ANTIOQUIA,5282,FREDONIA,Municipio,5.887702934,-75.67926242,POINT (-75.67926242 5.887702934)
5,ANTIOQUIA,5284,FRONTINO,Municipio,6.691364773,-76.33199656,POINT (-76.33199656 6.691364773)
5,ANTIOQUIA,5306,GIRALDO,Municipio,6.663095863,-75.94804663,POINT (-75.94804663 6.663095863)
5,ANTIOQUIA,5308,GIRARDOTA,Municipio,6.379745895,-75.44795744,POINT (-75.44795744 6.379745895)
5,ANTIOQUIA,5310,GÓMEZ PLATA,Municipio,6.709562839,-75.19270291,POINT (-75.19270291 6.709562839)
5,ANTIOQUIA,5313,GRANADA,Municipio,6.123380721,-75.12763646,POINT (-75.12763646 6.123380721)
5,ANTIOQUIA,5315,GUADALUPE,Municipio,6.861576325,-75.22591303,POINT (-75.22591303 6.861576325)
5,ANTIOQUIA,5318,GUARNE,Municipio,6.266625703,-75.43730801,POINT (-75.43730801 6.266625703)
5,ANTIOQUIA,5321,GUATAPÉ,Municipio,6.236329826,-75.15651272,POINT (-75.15651272 6.236329826)
5,ANTIOQUIA,5347,HELICONIA,Municipio,6.214511788,-75.74971002,POINT (-75.74971002 6.214511788)
5,ANTIOQUIA,5353,HISPANIA,Municipio,5.797039002,-75.90669203,POINT (-75.90669203 5.797039002)
5,ANTIOQUIA,5360,ITAGÜÍ,Municipio,6.179279438,-75.6142037,POINT (-75.6142037 6.179279438)
5,ANTIOQUIA,5361,ITUANGO,Municipio,7.341549718,-75.67842277,POINT (-75.67842277 7.341549718)
5,ANTIOQUIA,5364,JARDÍN,Municipio,5.574444339,-75.81842575,POINT (-75.81842575 5.574444339)
5,ANTIOQUIA,5368,JERICÓ,Municipio,5.769820536,-75.76488256,POINT (-75.76488256 5.769820536)
5,ANTIOQUIA,5376,LA CEJA,Municipio,5.992524843,-75.43086935,POINT (-75.43086935 5.992524843)
5,ANTIOQUIA,5380,LA ESTRELLA,Municipio,6.137595883,-75.64895499,POINT (-75.64895499 6.137595883)
5,ANTIOQUIA,5390,LA PINTADA,Municipio,5.746583958,-75.60220206,POINT (-75.60220206 5.746583958)
5,ANTIOQUIA,5400,LA UNIÓN,Municipio,5.940434685,-75.35429023,POINT (-75.35429023 5.940434685)
5,ANTIOQUIA,5411,LIBORINA,Municipio,6.723990935,-75.78300046,POINT (-75.78300046 6.723990935)
5,ANTIOQUIA,5425,MACEO,Municipio,6.534573585,-74.71410854,POINT (-74.71410854 6.534573585)
5,ANTIOQUIA,5440,MARINILLA,Municipio,6.18520515,-75.30487933,POINT (-75.30487933 6.18520515)
5,ANTIOQUIA,5467,MONTEBELLO,Municipio,5.916853903,-75.51972693,POINT (-75.51972693 5.916853903)
5,ANTIOQUIA,5475,MURINDÓ,Municipio,6.828773855,-76.70861349,POINT (-76.70861349 6.828773855)
5,ANTIOQUIA,5480,MUTATÁ,Municipio,7.329557848,-76.4630657,POINT (-76.4630657 7.329557848)
5,ANTIOQUIA,5483,NARIÑO,Municipio,5.581275312,-75.19457019,POINT (-75.19457019 5.581275312)
5,ANTIOQUIA,5490,NECOCLÍ,Municipio,8.493728551,-76.67699588,POINT (-76.67699588 8.493728551)
5,ANTIOQUIA,5495,NECHÍ,Municipio,7.983477394,-74.65844186,POINT (-74.65844186 7.983477394)
5,ANTIOQUIA,5501,OLAYA,Municipio,6.611418083,-75.77567097,POINT (-75.77567097 6.611418083)
5,ANTIOQUIA,5541,PEÑOL,Municipio,6.232396368,-75.22350906,POINT (-75.22350906 6.232396368)
5,ANTIOQUIA,5543,PEQUE,Municipio,7.044180058,-75.88968843,POINT (-75.88968843 7.044180058)
5,ANTIOQUIA,5576,PUEBLORRICO,Municipio,5.80970186,-75.86076667,POINT (-75.86076667 5.80970186)
5,ANTIOQUIA,5579,PUERTO BERRÍO,Municipio,6.481922267,-74.5287421,POINT (-74.5287421 6.481922267)
5,ANTIOQUIA,5585,PUERTO NARE,Municipio,6.126539139,-74.70317722,POINT (-74.70317722 6.126539139)
5,ANTIOQUIA,5591,PUERTO TRIUNFO,Municipio,5.954830151,-74.6861918,POINT (-74.6861918 5.954830151)
5,ANTIOQUIA,5604,REMEDIOS,Municipio,6.997267375,-74.55865652,POINT (-74.55865652 6.997267375)
5,ANTIOQUIA,5607,RETIRO,Municipio,6.053444254,-75.51573805,POINT (-75.51573805 6.053444254)
5,ANTIOQUIA,5615,RIONEGRO,Municipio,6.150785807,-75.41076052,POINT (-75.41076052 6.150785807)
5,ANTIOQUIA,5628,SABANALARGA,Municipio,6.901000506,-75.79222754,POINT (-75.79222754 6.901000506)
5,ANTIOQUIA,5631,SABANETA,Municipio,6.138305183,-75.60880599,POINT (-75.60880599 6.138305183)
5,ANTIOQUIA,5642,SALGAR,Municipio,5.970502334,-75.98137251,POINT (-75.98137251 5.970502334)
5,ANTIOQUIA,5647,SAN ANDRÉS DE CUERQUÍA,Municipio,6.918427233,-75.6657758,POINT (-75.6657758 6.918427233)
5,ANTIOQUIA,5649,SAN CARLOS,Municipio,6.193789659,-74.90732769,POINT (-74.90732769 6.193789659)
5,ANTIOQUIA,5652,SAN FRANCISCO,Municipio,5.840093731,-74.98176334,POINT (-74.98176334 5.840093731)
5,ANTIOQUIA,5656,SAN JERÓNIMO,Municipio,6.438300409,-75.70310727,POINT (-75.70310727 6.438300409)
5,ANTIOQUIA,5658,SAN JOSÉ DE LA MONTAÑA,Municipio,6.823258913,-75.67770826,POINT (-75.67770826 6.823258913)
5,ANTIOQUIA,5659,SAN JUAN DE URABÁ,Municipio,8.707141583,-76.53248234,POINT (-76.53248234 8.707141583)
5,ANTIOQUIA,5660,SAN LUIS,Municipio,6.024205956,-75.0076674,POINT (-75.0076674 6.024205956)
5,ANTIOQUIA,5664,SAN PEDRO DE LOS MILAGROS,Municipio,6.458666308,-75.5624839,POINT (-75.5624839 6.458666308)
5,ANTIOQUIA,5665,SAN PEDRO DE URABÁ,Municipio,8.37915695,-76.31664233,POINT (-76.31664233 8.37915695)
5,ANTIOQUIA,5667,SAN RAFAEL,Municipio,6.31074453,-74.99858652,POINT (-74.99858652 6.31074453)
5,ANTIOQUIA,5670,SAN ROQUE,Municipio,6.466165211,-74.9450732,POINT (-74.9450732 6.466165211)
5,ANTIOQUIA,5674,SAN VICENTE FERRER,Municipio,6.310387522,-75.32740163,POINT (-75.32740163 6.310387522)
5,ANTIOQUIA,5679,SANTA BÁRBARA,Municipio,5.878984956,-75.58330371,POINT (-75.58330371 5.878984956)
5,ANTIOQUIA,5686,SANTA ROSA DE OSOS,Municipio,6.675827825,-75.43814333,POINT (-75.43814333 6.675827825)
5,ANTIOQUIA,5690,SANTO DOMINGO,Municipio,6.481044132,-75.14260097,POINT (-75.14260097 6.481044132)
5,ANTIOQUIA,5697,EL SANTUARIO,Municipio,6.124209495,-75.25212278,POINT (-75.25212278 6.124209495)
5,ANTIOQUIA,5736,SEGOVIA,Municipio,7.26692339,-74.62163926,POINT (-74.62163926 7.26692339)
5,ANTIOQUIA,5756,SONSÓN,Municipio,5.826388779,-74.83637623,POINT (-74.83637623 5.826388779)
5,ANTIOQUIA,5761,SOPETRÁN,Municipio,6.520164552,-75.74580903,POINT (-75.74580903 6.520164552)
5,ANTIOQUIA,5789,TÁMESIS,Municipio,5.673758571,-75.70979974,POINT (-75.70979974 5.673758571)
5,ANTIOQUIA,5790,TARAZÁ,Municipio,7.488875998,-75.40189438,POINT (-75.40189438 7.488875998)
5,ANTIOQUIA,5792,TARSO,Municipio,5.871064557,-75.82871144,POINT (-75.82871144 5.871064557)
5,ANTIOQUIA,5809,TITIRIBÍ,Municipio,6.058349971,-75.79966005,POINT (-75.79966005 6.058349971)
5,ANTIOQUIA,5819,TOLEDO,Municipio,7.016397069,-75.71363382,POINT (-75.71363382 7.016397069)
5,ANTIOQUIA,5837,TURBO,Municipio,8.173851745,-76.5740377,POINT (-76.5740377 8.173851745)
5,ANTIOQUIA,5842,URAMITA,Municipio,6.913916924,-76.13318514,POINT (-76.13318514 6.913916924)
5,ANTIOQUIA,5847,URRAO,Municipio,6.33534134,-76.25906482,POINT (-76.25906482 6.33534134)
5,ANTIOQUIA,5854,VALDIVIA,Municipio,7.265404213,-75.40094502,POINT (-75.40094502 7.265404213)
5,ANTIOQUIA,5856,VALPARAÍSO,Municipio,5.651937802,-75.63083412,POINT (-75.63083412 5.651937802)
5,ANTIOQUIA,5858,VEGACHÍ,Municipio,6.836535122,-74.7540302,POINT (-74.7540302 6.836535122)
5,ANTIOQUIA,5861,VENECIA,Municipio,5.956576355,-75.77722423,POINT (-75.77722423 5.956576355)
5,ANTIOQUIA,5873,VIGÍA DEL FUERTE,Municipio,6.453351334,-76.69504802,POINT (-76.69504802 6.453351334)
5,ANTIOQUIA,5885,YALÍ,Municipio,6.716870679,-74.75565002,POINT (-74.75565002 6.716870679)
5,ANTIOQUIA,5887,YARUMAL,Municipio,6.9881309,-75.45439957,POINT (-75.45439957 6.9881309)
5,ANTIOQUIA,5890,YOLOMBÓ,Municipio,6.64442786,-75.02990266,POINT (-75.02990266 6.64442786)
5,ANTIOQUIA,5893,YONDÓ,Municipio,6.925159318,-74.15824041,POINT (-74.15824041 6.925159318)
5,ANTIOQUIA,5895,ZARAGOZA,Municipio,7.474004006,-74.85848326,POINT (-74.85848326 7.474004006)
8,ATLÁNTICO,8001,BARRANQUILLA,Municipio,10.98152051,-74.82771544,POINT (-74.82771544 10.98152051)
8,ATLÁNTICO,8078,BARANOA,Municipio,10.79329302,-74.92219491,POINT (-74.92219491 10.79329302)
8,ATLÁNTICO,8137,CAMPO DE LA CRUZ,Municipio,10.38405079,-74.88466039,POINT (-74.88466039 10.38405079)
8,ATLÁNTICO,8141,CANDELARIA,Municipio,10.48902047,-74.87756627,POINT (-74.87756627 10.48902047)
8,ATLÁNTICO,8296,GALAPA,Municipio,10.89771991,-74.88708788,POINT (-74.88708788 10.89771991)
8,ATLÁNTICO,8372,JUAN DE ACOSTA,Municipio,10.82306503,-75.07841904,POINT (-75.07841904 10.82306503)
8,ATLÁNTICO,8421,LURUACO,Municipio,10.63503116,-75.15402741,POINT (-75.15402741 10.63503116)
8,ATLÁNTICO,8433,MALAMBO,Municipio,10.84828864,-74.80617555,POINT (-74.80617555 10.84828864)
8,ATLÁNTICO,8436,MANATÍ,Municipio,10.45414555,-74.98477367,POINT (-74.98477367 10.45414555)
8,ATLÁNTICO,8520,PALMAR DE VARELA,Municipio,10.69481208,-74.7701509,POINT (-74.7701509 10.69481208)
8,ATLÁNTICO,8549,PIOJÓ,Municipio,10.74078959,-75.14366034,POINT (-75.14366034 10.74078959)
8,ATLÁNTICO,8558,POLONUEVO,Municipio,10.76740141,-74.85414844,POINT (-74.85414844 10.76740141)
8,ATLÁNTICO,8560,PONEDERA,Municipio,10.59465102,-74.79847316,POINT (-74.79847316 10.59465102)
8,ATLÁNTICO,8573,PUERTO COLOMBIA,Municipio,11.0044226,-74.9074058,POINT (-74.9074058 11.0044226)
8,ATLÁNTICO,8606,REPELÓN,Municipio,10.50757051,-75.12188053,POINT (-75.12188053 10.50757051)
8,ATLÁNTICO,8634,SABANAGRANDE,Municipio,10.79894015,-74.7687966,POINT (-74.7687966 10.79894015)
8,ATLÁNTICO,8638,SABANALARGA,Municipio,10.62250777,-74.95510542,POINT (-74.95510542 10.62250777)
8,ATLÁNTICO,8675,SANTA LUCÍA,Municipio,10.35364192,-74.96541179,POINT (-74.96541179 10.35364192)
8,ATLÁNTICO,8685,SANTO TOMÁS,Municipio,10.75562656,-74.78726468,POINT (-74.78726468 10.75562656)
8,ATLÁNTICO,8758,SOLEDAD,Municipio,10.9069066,-74.7784249,POINT (-74.7784249 10.9069066)
8,ATLÁNTICO,8770,SUAN,Municipio,10.31085035,-74.90713308,POINT (-74.90713308 10.31085035)
8,ATLÁNTICO,8832,TUBARÁ,Municipio,10.90721938,-74.98423293,POINT (-74.98423293 10.90721938)
8,ATLÁNTICO,8849,USIACURÍ,Municipio,10.74052266,-74.98267413,POINT (-74.98267413 10.74052266)
11,"BOGOTÁ, D.C.",11001,"BOGOTÁ, D.C.",Municipio,4.316107698,-74.1810727,POINT (-74.1810727 4.316107698)
13,BOLÍVAR,13001,CARTAGENA DE INDIAS,Municipio,10.46343362,-75.45889915,POINT (-75.45889915 10.46343362)
13,BOLÍVAR,13006,ACHÍ,Municipio,8.622943262,-74.47805945,POINT (-74.47805945 8.622943262)
13,BOLÍVAR,13030,ALTOS DEL ROSARIO,Municipio,8.757468863,-74.19515811,POINT (-74.19515811 8.757468863)
13,BOLÍVAR,13042,ARENAL,Municipio,8.362996158,-74.10301905,POINT (-74.10301905 8.362996158)
13,BOLÍVAR,13052,ARJONA,Municipio,10.16422123,-75.37121788,POINT (-75.37121788 10.16422123)
13,BOLÍVAR,13062,ARROYOHONDO,Municipio,10.24171805,-75.02690422,POINT (-75.02690422 10.24171805)
13,BOLÍVAR,13074,BARRANCO DE LOBA,Municipio,8.837077654,-74.27966531,POINT (-74.27966531 8.837077654)
13,BOLÍVAR,13140,CALAMAR,Municipio,10.15517098,-74.99995949,POINT (-74.99995949 10.15517098)
13,BOLÍVAR,13160,CANTAGALLO,Municipio,7.239229146,-74.10014043,POINT (-74.10014043 7.239229146)
13,BOLÍVAR,13188,CICUCO,Municipio,9.235268598,-74.68840962,POINT (-74.68840962 9.235268598)
13,BOLÍVAR,13212,CÓRDOBA,Municipio,9.540047515,-74.89445635,POINT (-74.89445635 9.540047515)
13,BOLÍVAR,13222,CLEMENCIA,Municipio,10.55663696,-75.31446653,POINT (-75.31446653 10.55663696)
13,BOLÍVAR,13244,EL CARMEN DE BOLÍVAR,Municipio,9.699819876,-75.15793573,POINT (-75.15793573 9.699819876)
13,BOLÍVAR,13248,EL GUAMO,Municipio,10.03483672,-74.92811072,POINT (-74.92811072 10.03483672)
13,BOLÍVAR,13268,EL PEÑÓN,Municipio,8.864818786,-73.91230147,POINT (-73.91230147 8.864818786)
13,BOLÍVAR,13300,HATILLO DE LOBA,Municipio,8.981717133,-74.09071902,POINT (-74.09071902 8.981717133)
13,BOLÍVAR,13430,MAGANGUÉ,Municipio,9.053135895,-74.70539318,POINT (-74.70539318 9.053135895)
13,BOLÍVAR,13433,MAHATES,Municipio,10.17821391,-75.17978161,POINT (-75.17978161 10.17821391)
13,BOLÍVAR,13440,MARGARITA,Municipio,9.054601889,-74.22584706,POINT (-74.22584706 9.054601889)
13,BOLÍVAR,13442,MARÍA LA BAJA,Municipio,9.976017168,-75.34380265,POINT (-75.34380265 9.976017168)
13,BOLÍVAR,13458,MONTECRISTO,Municipio,8.01710024,-74.46342911,POINT (-74.46342911 8.01710024)
13,BOLÍVAR,13468,SANTA CRUZ DE MOMPOX,Municipio,9.142512064,-74.54519906,POINT (-74.54519906 9.142512064)
13,BOLÍVAR,13473,MORALES,Municipio,8.253700061,-73.9713459,POINT (-73.9713459 8.253700061)
13,BOLÍVAR,13490,NOROSÍ,Municipio,8.50613476,-74.11588912,POINT (-74.11588912 8.50613476)
13,BOLÍVAR,13549,PINILLOS,Municipio,8.886315511,-74.40888476,POINT (-74.40888476 8.886315511)
13,BOLÍVAR,13580,REGIDOR,Municipio,8.672628558,-73.91450679,POINT (-73.91450679 8.672628558)
13,BOLÍVAR,13600,RÍO VIEJO,Municipio,8.559982465,-73.90298668,POINT (-73.90298668 8.559982465)
13,BOLÍVAR,13620,SAN CRISTÓBAL,Municipio,10.36972087,-75.07333835,POINT (-75.07333835 10.36972087)
13,BOLÍVAR,13647,SAN ESTANISLAO,Municipio,10.36468192,-75.20523487,POINT (-75.20523487 10.36468192)
13,BOLÍVAR,13650,SAN FERNANDO,Municipio,9.081483143,-74.37186647,POINT (-74.37186647 9.081483143)
13,BOLÍVAR,13654,SAN JACINTO,Municipio,9.835362011,-75.10609201,POINT (-75.10609201 9.835362011)
13,BOLÍVAR,13655,SAN JACINTO DEL CAUCA,Municipio,8.212463202,-74.75082,POINT (-74.75082 8.212463202)
13,BOLÍVAR,13657,SAN JUAN NEPOMUCENO,Municipio,9.967957823,-75.06571959,POINT (-75.06571959 9.967957823)
13,BOLÍVAR,13667,SAN MARTÍN DE LOBA,Municipio,8.816088444,-74.00599967,POINT (-74.00599967 8.816088444)
13,BOLÍVAR,13670,SAN PABLO,Municipio,7.507922612,-74.10356977000001,POINT (-74.10356977000001 7.507922612)
13,BOLÍVAR,13673,SANTA CATALINA,Municipio,10.64981278,-75.26548463,POINT (-75.26548463 10.64981278)
13,BOLÍVAR,13683,SANTA ROSA,Municipio,10.46920726,-75.36116053,POINT (-75.36116053 10.46920726)
13,BOLÍVAR,13688,SANTA ROSA DEL SUR,Municipio,7.772519173,-74.26272843,POINT (-74.26272843 7.772519173)
13,BOLÍVAR,13744,SIMITÍ,Municipio,7.851315534,-73.98371609,POINT (-73.98371609 7.851315534)
13,BOLÍVAR,13760,SOPLAVIENTO,Municipio,10.33209031,-75.11699226,POINT (-75.11699226 10.33209031)
13,BOLÍVAR,13780,TALAIGUA NUEVO,Municipio,9.269516705,-74.58695233,POINT (-74.58695233 9.269516705)
13,BOLÍVAR,13810,TIQUISIO,Municipio,8.492345176,-74.29676139,POINT (-74.29676139 8.492345176)
13,BOLÍVAR,13836,TURBACO,Municipio,10.35310756,-75.37971541,POINT (-75.37971541 10.35310756)
13,BOLÍVAR,13838,TURBANÁ,Municipio,10.25276929,-75.43270299,POINT (-75.43270299 10.25276929)
13,BOLÍVAR,13873,VILLANUEVA,Municipio,10.4449132,-75.26736275,POINT (-75.26736275 10.4449132)
13,BOLÍVAR,13894,ZAMBRANO,Municipio,9.745147021,-74.88067037,POINT (-74.88067037 9.745147021)
15,BOYACÁ,15001,TUNJA,Municipio,5.518472615,-73.37801856,POINT (-73.37801856 5.518472615)
15,BOYACÁ,15022,ALMEIDA,Municipio,4.954825081,-73.38813425,POINT (-73.38813425 4.954825081)
15,BOYACÁ,15047,AQUITANIA,Municipio,5.437416373,-72.87149471,POINT (-72.87149471 5.437416373)
15,BOYACÁ,15051,ARCABUCO,Municipio,5.73526424,-73.42793109,POINT (-73.42793109 5.73526424)
15,BOYACÁ,15087,BELÉN,Municipio,6.005059265,-72.89369887,POINT (-72.89369887 6.005059265)
15,BOYACÁ,15090,BERBEO,Municipio,5.230936356,-73.12731944,POINT (-73.12731944 5.230936356)
15,BOYACÁ,15092,BETÉITIVA,Municipio,5.920858933,-72.84857876,POINT (-72.84857876 5.920858933)
15,BOYACÁ,15097,BOAVITA,Municipio,6.337515626,-72.62021239,POINT (-72.62021239 6.337515626)
15,BOYACÁ,15104,BOYACÁ,Municipio,5.439856216,-73.38136994,POINT (-73.38136994 5.439856216)
15,BOYACÁ,15106,BRICEÑO,Municipio,5.673229265,-73.92660705,POINT (-73.92660705 5.673229265)
15,BOYACÁ,15109,BUENAVISTA,Municipio,5.489399419,-73.95066255,POINT (-73.95066255 5.489399419)
15,BOYACÁ,15114,BUSBANZÁ,Municipio,5.843483731,-72.87574623,POINT (-72.87574623 5.843483731)
15,BOYACÁ,15131,CALDAS,Municipio,5.575990669,-73.88057508,POINT (-73.88057508 5.575990669)
15,BOYACÁ,15135,CAMPOHERMOSO,Municipio,5.006862536,-73.1446703,POINT (-73.1446703 5.006862536)
15,BOYACÁ,15162,CERINZA,Municipio,5.962013698,-72.96447288,POINT (-72.96447288 5.962013698)
15,BOYACÁ,15172,CHINAVITA,Municipio,5.202971639,-73.34048074,POINT (-73.34048074 5.202971639)
15,BOYACÁ,15176,CHIQUINQUIRÁ,Municipio,5.622488024,-73.80424531,POINT (-73.80424531 5.622488024)
15,BOYACÁ,15180,CHISCAS,Municipio,6.68911806,-72.41795675,POINT (-72.41795675 6.68911806)
15,BOYACÁ,15183,CHITA,Municipio,6.091468485,-72.43903174,POINT (-72.43903174 6.091468485)
15,BOYACÁ,15185,CHITARAQUE,Municipio,5.984394625,-73.42582375,POINT (-73.42582375 5.984394625)
15,BOYACÁ,15187,CHIVATÁ,Municipio,5.556830465,-73.26061715,POINT (-73.26061715 5.556830465)
15,BOYACÁ,15189,CIÉNEGA,Municipio,5.393059633,-73.28205772,POINT (-73.28205772 5.393059633)
15,BOYACÁ,15204,CÓMBITA,Municipio,5.667822366,-73.32137049,POINT (-73.32137049 5.667822366)
15,BOYACÁ,15212,COPER,Municipio,5.452461072,-74.05996578,POINT (-74.05996578 5.452461072)
15,BOYACÁ,15215,CORRALES,Municipio,5.82454582,-72.84544845,POINT (-72.84544845 5.82454582)
15,BOYACÁ,15218,COVARACHÍA,Municipio,6.519521476,-72.74020421,POINT (-72.74020421 6.519521476)
15,BOYACÁ,15223,CUBARÁ,Municipio,6.886954878,-72.18156285,POINT (-72.18156285 6.886954878)
15,BOYACÁ,15224,CUCAITA,Municipio,5.527104109,-73.44598646,POINT (-73.44598646 5.527104109)
15,BOYACÁ,15226,CUÍTIVA,Municipio,5.58775449,-72.93953686,POINT (-72.93953686 5.58775449)
15,BOYACÁ,15232,CHÍQUIZA,Municipio,5.643075648,-73.44562391,POINT (-73.44562391 5.643075648)
15,BOYACÁ,15236,CHIVOR,Municipio,4.871181606,-73.36142379,POINT (-73.36142379 4.871181606)
15,BOYACÁ,15238,DUITAMA,Municipio,5.890602515,-73.06709484,POINT (-73.06709484 5.890602515)
15,BOYACÁ,15244,EL COCUY,Municipio,6.353363177,-72.41923752,POINT (-72.41923752 6.353363177)
15,BOYACÁ,15248,EL ESPINO,Municipio,6.508240556,-72.48049625,POINT (-72.48049625 6.508240556)
15,BOYACÁ,15272,FIRAVITOBA,Municipio,5.67367659,-73.01983352,POINT (-73.01983352 5.67367659)
15,BOYACÁ,15276,FLORESTA,Municipio,5.85899211,-72.92499827,POINT (-72.92499827 5.85899211)
15,BOYACÁ,15293,GACHANTIVÁ,Municipio,5.744105975,-73.5426552,POINT (-73.5426552 5.744105975)
15,BOYACÁ,15296,GÁMEZA,Municipio,5.799050256,-72.72964765,POINT (-72.72964765 5.799050256)
15,BOYACÁ,15299,GARAGOA,Municipio,5.089466651,-73.31430272,POINT (-73.31430272 5.089466651)
15,BOYACÁ,15317,GUACAMAYAS,Municipio,6.445438546,-72.51635332,POINT (-72.51635332 6.445438546)
15,BOYACÁ,15322,GUATEQUE,Municipio,5.01450831,-73.48812352,POINT (-73.48812352 5.01450831)
15,BOYACÁ,15325,GUAYATÁ,Municipio,4.931424341,-73.49663372,POINT (-73.49663372 4.931424341)
15,BOYACÁ,15332,GÜICÁN DE LA SIERRA,Municipio,6.566991765,-72.25599334,POINT (-72.25599334 6.566991765)
15,BOYACÁ,15362,IZA,Municipio,5.617366016,-72.96986504,POINT (-72.96986504 5.617366016)
15,BOYACÁ,15367,JENESANO,Municipio,5.38916272,-73.40087021,POINT (-73.40087021 5.38916272)
15,BOYACÁ,15368,JERICÓ,Municipio,6.155633662,-72.58523093,POINT (-72.58523093 6.155633662)
15,BOYACÁ,15377,LABRANZAGRANDE,Municipio,5.541378132,-72.5903846,POINT (-72.5903846 5.541378132)
15,BOYACÁ,15380,LA CAPILLA,Municipio,5.113167102,-73.45923708,POINT (-73.45923708 5.113167102)
15,BOYACÁ,15401,LA VICTORIA,Municipio,5.507008121,-74.24162727,POINT (-74.24162727 5.507008121)
15,BOYACÁ,15403,LA UVITA,Municipio,6.265126191,-72.55551085,POINT (-72.55551085 6.265126191)
15,BOYACÁ,15407,VILLA DE LEYVA,Municipio,5.665762424,-73.514948,POINT (-73.514948 5.665762424)
15,BOYACÁ,15425,MACANAL,Municipio,4.980176495,-73.29413695,POINT (-73.29413695 4.980176495)
15,BOYACÁ,15442,MARIPÍ,Municipio,5.569810633,-74.02003127,POINT (-74.02003127 5.569810633)
15,BOYACÁ,15455,MIRAFLORES,Municipio,5.150953297,-73.17896722,POINT (-73.17896722 5.150953297)
15,BOYACÁ,15464,MONGUA,Municipio,5.710937981,-72.63402875,POINT (-72.63402875 5.710937981)
15,BOYACÁ,15466,MONGUÍ,Municipio,5.697352228,-72.83298664,POINT (-72.83298664 5.697352228)
15,BOYACÁ,15469,MONIQUIRÁ,Municipio,5.863370485,-73.55852538,POINT (-73.55852538 5.863370485)
15,BOYACÁ,15476,MOTAVITA,Municipio,5.606192449,-73.37734267,POINT (-73.37734267 5.606192449)
15,BOYACÁ,15480,MUZO,Municipio,5.539429272,-74.11177139,POINT (-74.11177139 5.539429272)
15,BOYACÁ,15491,NOBSA,Municipio,5.778759851,-72.93268324,POINT (-72.93268324 5.778759851)
15,BOYACÁ,15494,NUEVO COLÓN,Municipio,5.354701485,-73.44873424,POINT (-73.44873424 5.354701485)
15,BOYACÁ,15500,OICATÁ,Municipio,5.610787844,-73.27991905,POINT (-73.27991905 5.610787844)
15,BOYACÁ,15507,OTANCHE,Municipio,5.753787787,-74.19719423,POINT (-74.19719423 5.753787787)
15,BOYACÁ,15511,PACHAVITA,Municipio,5.148323877,-73.39951219,POINT (-73.39951219 5.148323877)
15,BOYACÁ,15514,PÁEZ,Municipio,5.095211035,-73.00435863,POINT (-73.00435863 5.095211035)
15,BOYACÁ,15516,PAIPA,Municipio,5.762027786,-73.13777442,POINT (-73.13777442 5.762027786)
15,BOYACÁ,15518,PAJARITO,Municipio,5.382328949,-72.69672674,POINT (-72.69672674 5.382328949)
15,BOYACÁ,15522,PANQUEBA,Municipio,6.443299758,-72.46182431,POINT (-72.46182431 6.443299758)
15,BOYACÁ,15531,PAUNA,Municipio,5.688801559,-74.00504122,POINT (-74.00504122 5.688801559)
15,BOYACÁ,15533,PAYA,Municipio,5.621242742,-72.3692906,POINT (-72.3692906 5.621242742)
15,BOYACÁ,15537,PAZ DE RÍO,Municipio,6.030008561,-72.75988018,POINT (-72.75988018 6.030008561)
15,BOYACÁ,15542,PESCA,Municipio,5.498483324,-73.07837993,POINT (-73.07837993 5.498483324)
15,BOYACÁ,15550,PISBA,Municipio,5.768131812,-72.43993232,POINT (-72.43993232 5.768131812)
15,BOYACÁ,15572,PUERTO BOYACÁ,Municipio,5.953466654,-74.4528581,POINT (-74.4528581 5.953466654)
15,BOYACÁ,15580,QUÍPAMA,Municipio,5.595729831,-74.26857067,POINT (-74.26857067 5.595729831)
15,BOYACÁ,15599,RAMIRIQUÍ,Municipio,5.319934092,-73.310779,POINT (-73.310779 5.319934092)
15,BOYACÁ,15600,RÁQUIRA,Municipio,5.496268621,-73.62894438,POINT (-73.62894438 5.496268621)
15,BOYACÁ,15621,RONDÓN,Municipio,5.379947879,-73.19650995,POINT (-73.19650995 5.379947879)
15,BOYACÁ,15632,SABOYÁ,Municipio,5.699926051,-73.74799466,POINT (-73.74799466 5.699926051)
15,BOYACÁ,15638,SÁCHICA,Municipio,5.573464882,-73.543102,POINT (-73.543102 5.573464882)
15,BOYACÁ,15646,SAMACÁ,Municipio,5.47053997,-73.5211756,POINT (-73.5211756 5.47053997)
15,BOYACÁ,15660,SAN EDUARDO,Municipio,5.234614686,-73.04914067,POINT (-73.04914067 5.234614686)
15,BOYACÁ,15664,SAN JOSÉ DE PARE,Municipio,5.994154088,-73.54386522,POINT (-73.54386522 5.994154088)
15,BOYACÁ,15667,SAN LUIS DE GACENO,Municipio,4.798203543,-73.13397018,POINT (-73.13397018 4.798203543)
15,BOYACÁ,15673,SAN MATEO,Municipio,6.395388812,-72.55184862,POINT (-72.55184862 6.395388812)
15,BOYACÁ,15676,SAN MIGUEL DE SEMA,Municipio,5.532326922,-73.74715898,POINT (-73.74715898 5.532326922)
15,BOYACÁ,15681,SAN PABLO DE BORBUR,Municipio,5.677345066,-74.11403749,POINT (-74.11403749 5.677345066)
15,BOYACÁ,15686,SANTANA,Municipio,6.057614971,-73.48974828,POINT (-73.48974828 6.057614971)
15,BOYACÁ,15690,SANTA MARÍA,Municipio,4.823002556,-73.25377506,POINT (-73.25377506 4.823002556)
15,BOYACÁ,15693,SANTA ROSA DE VITERBO,Municipio,5.892950301,-72.9917278,POINT (-72.9917278 5.892950301)
15,BOYACÁ,15696,SANTA SOFÍA,Municipio,5.731602716,-73.60366287,POINT (-73.60366287 5.731602716)
15,BOYACÁ,15720,SATIVANORTE,Municipio,6.13211793,-72.73032415,POINT (-72.73032415 6.13211793)
15,BOYACÁ,15723,SATIVASUR,Municipio,6.083405978,-72.72410815,POINT (-72.72410815 6.083405978)
15,BOYACÁ,15740,SIACHOQUE,Municipio,5.498747701,-73.21681778,POINT (-73.21681778 5.498747701)
15,BOYACÁ,15753,SOATÁ,Municipio,6.323088045,-72.69604089,POINT (-72.69604089 6.323088045)
15,BOYACÁ,15755,SOCOTÁ,Municipio,5.906513772,-72.53646361,POINT (-72.53646361 5.906513772)
15,BOYACÁ,15757,SOCHA,Municipio,5.960498836,-72.68239784,POINT (-72.68239784 5.960498836)
15,BOYACÁ,15759,SOGAMOSO,Municipio,5.646672053,-72.8709565,POINT (-72.8709565 5.646672053)
15,BOYACÁ,15761,SOMONDOCO,Municipio,4.970974064,-73.42878785,POINT (-73.42878785 4.970974064)
15,BOYACÁ,15762,SORA,Municipio,5.580573191,-73.44371838,POINT (-73.44371838 5.580573191)
15,BOYACÁ,15763,SOTAQUIRÁ,Municipio,5.763010553,-73.24352232,POINT (-73.24352232 5.763010553)
15,BOYACÁ,15764,SORACÁ,Municipio,5.494890461,-73.31899997,POINT (-73.31899997 5.494890461)
15,BOYACÁ,15774,SUSACÓN,Municipio,6.215200578,-72.71575634,POINT (-72.71575634 6.215200578)
15,BOYACÁ,15776,SUTAMARCHÁN,Municipio,5.640030759,-73.62598773,POINT (-73.62598773 5.640030759)
15,BOYACÁ,15778,SUTATENZA,Municipio,5.030711335,-73.41224401,POINT (-73.41224401 5.030711335)
15,BOYACÁ,15790,TASCO,Municipio,5.882294313,-72.72626817,POINT (-72.72626817 5.882294313)
15,BOYACÁ,15798,TENZA,Municipio,5.071413139,-73.42479699,POINT (-73.42479699 5.071413139)
15,BOYACÁ,15804,TIBANÁ,Municipio,5.301116649,-73.3932521,POINT (-73.3932521 5.301116649)
15,BOYACÁ,15806,TIBASOSA,Municipio,5.747329389,-73.01114724,POINT (-73.01114724 5.747329389)
15,BOYACÁ,15808,TINJACÁ,Municipio,5.577566497,-73.67614572,POINT (-73.67614572 5.577566497)
15,BOYACÁ,15810,TIPACOQUE,Municipio,6.42035349,-72.69463583,POINT (-72.69463583 6.42035349)
15,BOYACÁ,15814,TOCA,Municipio,5.580254287,-73.1606969,POINT (-73.1606969 5.580254287)
15,BOYACÁ,15816,TOGÜÍ,Municipio,5.921830062,-73.48921806,POINT (-73.48921806 5.921830062)
15,BOYACÁ,15820,TÓPAGA,Municipio,5.765350303,-72.83672958,POINT (-72.83672958 5.765350303)
15,BOYACÁ,15822,TOTA,Municipio,5.501297215,-72.99633297,POINT (-72.99633297 5.501297215)
15,BOYACÁ,15832,TUNUNGUÁ,Municipio,5.720301516,-73.94330927,POINT (-73.94330927 5.720301516)
15,BOYACÁ,15835,TURMEQUÉ,Municipio,5.305697418,-73.50908714,POINT (-73.50908714 5.305697418)
15,BOYACÁ,15837,TUTA,Municipio,5.678126998,-73.17343053,POINT (-73.17343053 5.678126998)
15,BOYACÁ,15839,TUTAZÁ,Municipio,6.078051903,-72.85707832,POINT (-72.85707832 6.078051903)
15,BOYACÁ,15842,ÚMBITA,Municipio,5.217241368,-73.46338477,POINT (-73.46338477 5.217241368)
15,BOYACÁ,15861,VENTAQUEMADA,Municipio,5.383385481,-73.52097942,POINT (-73.52097942 5.383385481)
15,BOYACÁ,15879,VIRACACHÁ,Municipio,5.440558216,-73.26627456,POINT (-73.26627456 5.440558216)
15,BOYACÁ,15897,ZETAQUIRA,Municipio,5.285635983,-73.16763091,POINT (-73.16763091 5.285635983)
17,CALDAS,17001,MANIZALES,Municipio,5.08343301,-75.50727881,POINT (-75.50727881 5.08343301)
17,CALDAS,17013,AGUADAS,Municipio,5.616204006,-75.4554471,POINT (-75.4554471 5.616204006)
17,CALDAS,17042,ANSERMA,Municipio,5.20029922,-75.75289078,POINT (-75.75289078 5.20029922)
17,CALDAS,17050,ARANZAZU,Municipio,5.265539969,-75.47392619,POINT (-75.47392619 5.265539969)
17,CALDAS,17088,BELALCÁZAR,Municipio,4.99467728,-75.81225989,POINT (-75.81225989 4.99467728)
17,CALDAS,17174,CHINCHINÁ,Municipio,4.974340569,-75.65954686,POINT (-75.65954686 4.974340569)
17,CALDAS,17272,FILADELFIA,Municipio,5.285743777,-75.58978784,POINT (-75.58978784 5.285743777)
17,CALDAS,17380,LA DORADA,Municipio,5.410515691,-74.72114262,POINT (-74.72114262 5.410515691)
17,CALDAS,17388,LA MERCED,Municipio,5.393185716,-75.55791071,POINT (-75.55791071 5.393185716)
17,CALDAS,17433,MANZANARES,Municipio,5.23295391,-75.15263447,POINT (-75.15263447 5.23295391)
17,CALDAS,17442,MARMATO,Municipio,5.492632029,-75.60209955,POINT (-75.60209955 5.492632029)
17,CALDAS,17444,MARQUETALIA,Municipio,5.309142491,-75.04117892,POINT (-75.04117892 5.309142491)
17,CALDAS,17446,MARULANDA,Municipio,5.235585244,-75.28316648,POINT (-75.28316648 5.235585244)
17,CALDAS,17486,NEIRA,Municipio,5.183358589,-75.50692977,POINT (-75.50692977 5.183358589)
17,CALDAS,17495,NORCASIA,Municipio,5.638062349,-74.85492707,POINT (-74.85492707 5.638062349)
17,CALDAS,17513,PÁCORA,Municipio,5.500035035,-75.48245057,POINT (-75.48245057 5.500035035)
17,CALDAS,17524,PALESTINA,Municipio,5.050342543,-75.66176266,POINT (-75.66176266 5.050342543)
17,CALDAS,17541,PENSILVANIA,Municipio,5.407187836,-75.16683996,POINT (-75.16683996 5.407187836)
17,CALDAS,17614,RIOSUCIO,Municipio,5.442275418,-75.75220499,POINT (-75.75220499 5.442275418)
17,CALDAS,17616,RISARALDA,Municipio,5.097563816,-75.73335166,POINT (-75.73335166 5.097563816)
17,CALDAS,17653,SALAMINA,Municipio,5.370332425,-75.40962177,POINT (-75.40962177 5.370332425)
17,CALDAS,17662,SAMANÁ,Municipio,5.519692873,-74.99718577,POINT (-74.99718577 5.519692873)
17,CALDAS,17665,SAN JOSÉ,Municipio,5.083424513,-75.8101789,POINT (-75.8101789 5.083424513)
17,CALDAS,17777,SUPÍA,Municipio,5.45295802,-75.64035705,POINT (-75.64035705 5.45295802)
17,CALDAS,17867,VICTORIA,Municipio,5.447542859,-74.83622502,POINT (-74.83622502 5.447542859)
17,CALDAS,17873,VILLAMARÍA,Municipio,4.940211591,-75.43544014,POINT (-75.43544014 4.940211591)
17,CALDAS,17877,VITERBO,Municipio,5.047822054,-75.879297,POINT (-75.879297 5.047822054)
18,CAQUETÁ,18001,FLORENCIA,Municipio,1.749138704,-75.55823906,POINT (-75.55823906 1.749138704)
18,CAQUETÁ,18029,ALBANIA,Municipio,1.22786549,-75.88232651,POINT (-75.88232651 1.22786549)
18,CAQUETÁ,18094,BELÉN DE LOS ANDAQUÍES,Municipio,1.536174657,-75.90947504,POINT (-75.90947504 1.536174657)
18,CAQUETÁ,18150,CARTAGENA DEL CHAIRÁ,Municipio,0.647693081,-74.27235499,POINT (-74.27235499 0.647693081)
18,CAQUETÁ,18205,CURILLO,Municipio,1.115379292,-75.97328452,POINT (-75.97328452 1.115379292)
18,CAQUETÁ,18247,EL DONCELLO,Municipio,1.713734697,-75.26878109,POINT (-75.26878109 1.713734697)
18,CAQUETÁ,18256,EL PAUJÍL,Municipio,1.476630016,-75.20231825,POINT (-75.20231825 1.476630016)
18,CAQUETÁ,18410,LA MONTAÑITA,Municipio,1.302860442,-75.23572732,POINT (-75.23572732 1.302860442)
18,CAQUETÁ,18460,MILÁN,Municipio,1.146692554,-75.38664764,POINT (-75.38664764 1.146692554)
18,CAQUETÁ,18479,MORELIA,Municipio,1.38299611,-75.67381123,POINT (-75.67381123 1.38299611)
18,CAQUETÁ,18592,PUERTO RICO,Municipio,2.018940891,-75.07308627,POINT (-75.07308627 2.018940891)
18,CAQUETÁ,18610,SAN JOSÉ DEL FRAGUA,Municipio,1.304702314,-76.11000594,POINT (-76.11000594 1.304702314)
18,CAQUETÁ,18753,SAN VICENTE DEL CAGUÁN,Municipio,1.308465061,-74.19746971,POINT (-74.19746971 1.308465061)
18,CAQUETÁ,18756,SOLANO,Municipio,0.096131862,-72.32036402,POINT (-72.32036402 0.096131862)
18,CAQUETÁ,18785,SOLITA,Municipio,0.943939454,-75.64668544,POINT (-75.64668544 0.943939454)
18,CAQUETÁ,18860,VALPARAÍSO,Municipio,1.07534915,-75.73779004,POINT (-75.73779004 1.07534915)
19,CAUCA,19001,POPAYÁN,Municipio,2.471704362,-76.59194419,POINT (-76.59194419 2.471704362)
19,CAUCA,19022,ALMAGUER,Municipio,1.912440521,-76.83494519,POINT (-76.83494519 1.912440521)
19,CAUCA,19050,ARGELIA,Municipio,2.329337283,-77.26314906,POINT (-77.26314906 2.329337283)
19,CAUCA,19075,BALBOA,Municipio,2.084732945,-77.2088133,POINT (-77.2088133 2.084732945)
19,CAUCA,19100,BOLÍVAR,Municipio,1.853951938,-76.96337454,POINT (-76.96337454 1.853951938)
19,CAUCA,19110,BUENOS AIRES,Municipio,2.988923885,-76.62158951,POINT (-76.62158951 2.988923885)
19,CAUCA,19130,CAJIBÍO,Municipio,2.643209848,-76.70138914,POINT (-76.70138914 2.643209848)
19,CAUCA,19137,CALDONO,Municipio,2.803845691,-76.42719377,POINT (-76.42719377 2.803845691)
19,CAUCA,19142,CALOTO,Municipio,3.062875557,-76.32127977,POINT (-76.32127977 3.062875557)
19,CAUCA,19212,CORINTO,Municipio,3.136753606,-76.20964569,POINT (-76.20964569 3.136753606)
19,CAUCA,19256,EL TAMBO,Municipio,2.534488312,-77.00511207,POINT (-77.00511207 2.534488312)
19,CAUCA,19290,FLORENCIA,Municipio,1.69453474,-77.08735723,POINT (-77.08735723 1.69453474)
19,CAUCA,19300,GUACHENÉ,Municipio,3.144389993,-76.39234811,POINT (-76.39234811 3.144389993)
19,CAUCA,19318,GUAPI,Municipio,2.41326696,-77.69047531,POINT (-77.69047531 2.41326696)
19,CAUCA,19355,INZÁ,Municipio,2.499058783,-76.13762531,POINT (-76.13762531 2.499058783)
19,CAUCA,19364,JAMBALÓ,Municipio,2.84981013,-76.31124919,POINT (-76.31124919 2.84981013)
19,CAUCA,19392,LA SIERRA,Municipio,2.187473572,-76.78228032,POINT (-76.78228032 2.187473572)
19,CAUCA,19397,LA VEGA,Municipio,2.053933426,-76.7588062,POINT (-76.7588062 2.053933426)
19,CAUCA,19418,LÓPEZ DE MICAY,Municipio,2.95819877,-77.24212158,POINT (-77.24212158 2.95819877)
19,CAUCA,19450,MERCADERES,Municipio,1.793825164,-77.18060381,POINT (-77.18060381 1.793825164)
19,CAUCA,19455,MIRANDA,Municipio,3.228235212,-76.21670827,POINT (-76.21670827 3.228235212)
19,CAUCA,19473,MORALES,Municipio,2.773663981,-76.74605152,POINT (-76.74605152 2.773663981)
19,CAUCA,19513,PADILLA,Municipio,3.194730618,-76.3362418,POINT (-76.3362418 3.194730618)
19,CAUCA,19517,PÁEZ,Municipio,2.733887702,-75.99368264,POINT (-75.99368264 2.733887702)
19,CAUCA,19532,PATÍA,Municipio,2.157983906,-77.0465762,POINT (-77.0465762 2.157983906)
19,CAUCA,19533,PIAMONTE,Municipio,1.054128816,-76.4443271,POINT (-76.4443271 1.054128816)
19,CAUCA,19548,PIENDAMÓ - TUNÍA,Municipio,2.702420026,-76.53770455,POINT (-76.53770455 2.702420026)
19,CAUCA,19573,PUERTO TEJADA,Municipio,3.266724205,-76.41846353,POINT (-76.41846353 3.266724205)
19,CAUCA,19585,PURACÉ,Municipio,2.262153618,-76.44826938,POINT (-76.44826938 2.262153618)
19,CAUCA,19622,ROSAS,Municipio,2.260421954,-76.74582033,POINT (-76.74582033 2.260421954)
19,CAUCA,19693,SAN SEBASTIÁN,Municipio,1.856261815,-76.71652424,POINT (-76.71652424 1.856261815)
19,CAUCA,19698,SANTANDER DE QUILICHAO,Municipio,2.984467338,-76.49873145,POINT (-76.49873145 2.984467338)
19,CAUCA,19701,SANTA ROSA,Municipio,1.52002179,-76.53876281,POINT (-76.53876281 1.52002179)
19,CAUCA,19743,SILVIA,Municipio,2.651291894,-76.35057356,POINT (-76.35057356 2.651291894)
19,CAUCA,19760,SOTARÁ PAISPAMBA,Municipio,2.231820541,-76.61146633,POINT (-76.61146633 2.231820541)
19,CAUCA,19780,SUÁREZ,Municipio,2.936865997,-76.7458243,POINT (-76.7458243 2.936865997)
19,CAUCA,19785,SUCRE,Municipio,2.057735184,-76.90993965,POINT (-76.90993965 2.057735184)
19,CAUCA,19807,TIMBÍO,Municipio,2.369625312,-76.71051932,POINT (-76.71051932 2.369625312)
19,CAUCA,19809,TIMBIQUÍ,Municipio,2.699475127,-77.49131577,POINT (-77.49131577 2.699475127)
19,CAUCA,19821,TORIBÍO,Municipio,2.975771999,-76.20331566,POINT (-76.20331566 2.975771999)
19,CAUCA,19824,TOTORÓ,Municipio,2.475213085,-76.39675937,POINT (-76.39675937 2.475213085)
19,CAUCA,19845,VILLA RICA,Municipio,3.180627317,-76.46445558,POINT (-76.46445558 3.180627317)
20,CESAR,20001,VALLEDUPAR,Municipio,10.21890277,-73.45784764,POINT (-73.45784764 10.21890277)
20,CESAR,20011,AGUACHICA,Municipio,8.248735219,-73.6227405,POINT (-73.6227405 8.248735219)
20,CESAR,20013,AGUSTÍN CODAZZI,Municipio,9.949215908,-73.22358244,POINT (-73.22358244 9.949215908)
20,CESAR,20032,ASTREA,Municipio,9.510727925,-73.94214641,POINT (-73.94214641 9.510727925)
20,CESAR,20045,BECERRIL,Municipio,9.727732939,-73.25250522,POINT (-73.25250522 9.727732939)
20,CESAR,20060,BOSCONIA,Municipio,9.946391309,-73.86628815,POINT (-73.86628815 9.946391309)
20,CESAR,20175,CHIMICHAGUA,Municipio,9.27797765,-73.84697903,POINT (-73.84697903 9.27797765)
20,CESAR,20178,CHIRIGUANÁ,Municipio,9.426648354,-73.54797894,POINT (-73.54797894 9.426648354)
20,CESAR,20228,CURUMANÍ,Municipio,9.238771332,-73.48810861,POINT (-73.48810861 9.238771332)
20,CESAR,20238,EL COPEY,Municipio,10.19995356,-73.91282064,POINT (-73.91282064 10.19995356)
20,CESAR,20250,EL PASO,Municipio,9.683474681,-73.73833778,POINT (-73.73833778 9.683474681)
20,CESAR,20295,GAMARRA,Municipio,8.337726622,-73.70649199,POINT (-73.70649199 8.337726622)
20,CESAR,20310,GONZÁLEZ,Municipio,8.405516522,-73.37537309,POINT (-73.37537309 8.405516522)
20,CESAR,20383,LA GLORIA,Municipio,8.588002247,-73.61602384,POINT (-73.61602384 8.588002247)
20,CESAR,20400,LA JAGUA DE IBIRICO,Municipio,9.52099808,-73.32249338,POINT (-73.32249338 9.52099808)
20,CESAR,20443,MANAURE BALCÓN DEL CESAR,Municipio,10.38027852,-73.00706275,POINT (-73.00706275 10.38027852)
20,CESAR,20517,PAILITAS,Municipio,8.938916143,-73.57247213,POINT (-73.57247213 8.938916143)
20,CESAR,20550,PELAYA,Municipio,8.764116734,-73.63295546,POINT (-73.63295546 8.764116734)
20,CESAR,20570,PUEBLO BELLO,Municipio,10.41736874,-73.61450632,POINT (-73.61450632 10.41736874)
20,CESAR,20614,RÍO DE ORO,Municipio,8.201070245,-73.48750127,POINT (-73.48750127 8.201070245)
20,CESAR,20621,LA PAZ,Municipio,10.24440562,-73.07824569,POINT (-73.07824569 10.24440562)
20,CESAR,20710,SAN ALBERTO,Municipio,7.769815987,-73.47218888,POINT (-73.47218888 7.769815987)
20,CESAR,20750,SAN DIEGO,Municipio,10.16952712,-73.2879827,POINT (-73.2879827 10.16952712)
20,CESAR,20770,SAN MARTÍN,Municipio,7.937788454,-73.54436312,POINT (-73.54436312 7.937788454)
20,CESAR,20787,TAMALAMEQUE,Municipio,8.902075012,-73.7633962,POINT (-73.7633962 8.902075012)
23,CÓRDOBA,23001,MONTERÍA,Municipio,8.584698016,-75.95055079,POINT (-75.95055079 8.584698016)
23,CÓRDOBA,23068,AYAPEL,Municipio,8.265768688,-75.04868436,POINT (-75.04868436 8.265768688)
23,CÓRDOBA,23079,BUENAVISTA,Municipio,8.191397953,-75.43382532,POINT (-75.43382532 8.191397953)
23,CÓRDOBA,23090,CANALETE,Municipio,8.7240958,-76.23779081,POINT (-76.23779081 8.7240958)
23,CÓRDOBA,23162,CERETÉ,Municipio,8.895667051,-75.87842391,POINT (-75.87842391 8.895667051)
23,CÓRDOBA,23168,CHIMÁ,Municipio,9.11024941,-75.65237351,POINT (-75.65237351 9.11024941)
23,CÓRDOBA,23182,CHINÚ,Municipio,9.053287104,-75.37387363,POINT (-75.37387363 9.053287104)
23,CÓRDOBA,23189,CIÉNAGA DE ORO,Municipio,8.841811894,-75.60779829,POINT (-75.60779829 8.841811894)
23,CÓRDOBA,23300,COTORRA,Municipio,9.071460219,-75.75459276,POINT (-75.75459276 9.071460219)
23,CÓRDOBA,23350,LA APARTADA,Municipio,8.052218422,-75.28816022,POINT (-75.28816022 8.052218422)
23,CÓRDOBA,23417,LORICA,Municipio,9.165034998,-75.90978124,POINT (-75.90978124 9.165034998)
23,CÓRDOBA,23419,LOS CÓRDOBAS,Municipio,8.823307063,-76.3430552,POINT (-76.3430552 8.823307063)
23,CÓRDOBA,23464,MOMIL,Municipio,9.265461621,-75.65090876,POINT (-75.65090876 9.265461621)
23,CÓRDOBA,23466,MONTELÍBANO,Municipio,7.866432635,-75.87533926,POINT (-75.87533926 7.866432635)
23,CÓRDOBA,23500,MOÑITOS,Municipio,9.190515343,-76.11931709,POINT (-76.11931709 9.190515343)
23,CÓRDOBA,23555,PLANETA RICA,Municipio,8.181108488,-75.68923803,POINT (-75.68923803 8.181108488)
23,CÓRDOBA,23570,PUEBLO NUEVO,Municipio,8.481339568,-75.40516154,POINT (-75.40516154 8.481339568)
23,CÓRDOBA,23574,PUERTO ESCONDIDO,Municipio,8.988667731,-76.19405912,POINT (-76.19405912 8.988667731)
23,CÓRDOBA,23580,PUERTO LIBERTADOR,Municipio,7.711515736,-75.77123224,POINT (-75.77123224 7.711515736)
23,CÓRDOBA,23586,PURÍSIMA DE LA CONCEPCIÓN,Municipio,9.282386127,-75.72129392,POINT (-75.72129392 9.282386127)
23,CÓRDOBA,23660,SAHAGÚN,Municipio,8.799007016,-75.42925664,POINT (-75.42925664 8.799007016)
23,CÓRDOBA,23670,SAN ANDRÉS DE SOTAVENTO,Municipio,9.121296353,-75.52091711,POINT (-75.52091711 9.121296353)
23,CÓRDOBA,23672,SAN ANTERO,Municipio,9.359667489,-75.78700252,POINT (-75.78700252 9.359667489)
23,CÓRDOBA,23675,SAN BERNARDO DEL VIENTO,Municipio,9.330098329,-75.97623858,POINT (-75.97623858 9.330098329)
23,CÓRDOBA,23678,SAN CARLOS,Municipio,8.706464263,-75.69251825,POINT (-75.69251825 8.706464263)
23,CÓRDOBA,23682,SAN JOSÉ DE URÉ,Municipio,7.753054395,-75.5672474,POINT (-75.5672474 7.753054395)
23,CÓRDOBA,23686,SAN PELAYO,Municipio,8.987777392,-75.90958771,POINT (-75.90958771 8.987777392)
23,CÓRDOBA,23807,TIERRALTA,Municipio,7.813896829,-76.16846678,POINT (-76.16846678 7.813896829)
23,CÓRDOBA,23815,TUCHÍN,Municipio,9.224630803,-75.54410593,POINT (-75.54410593 9.224630803)
23,CÓRDOBA,23855,VALENCIA,Municipio,8.219904128,-76.2213286,POINT (-76.2213286 8.219904128)
25,CUNDINAMARCA,25001,AGUA DE DIOS,Municipio,4.372744676,-74.67111051,POINT (-74.67111051 4.372744676)
25,CUNDINAMARCA,25019,ALBÁN,Municipio,4.891121638,-74.44278432,POINT (-74.44278432 4.891121638)
25,CUNDINAMARCA,25035,ANAPOIMA,Municipio,4.559962881,-74.5256953,POINT (-74.5256953 4.559962881)
25,CUNDINAMARCA,25040,ANOLAIMA,Municipio,4.789313614,-74.46194256,POINT (-74.46194256 4.789313614)
25,CUNDINAMARCA,25053,ARBELÁEZ,Municipio,4.232786985,-74.39576291,POINT (-74.39576291 4.232786985)
25,CUNDINAMARCA,25086,BELTRÁN,Municipio,4.791721105,-74.71491399,POINT (-74.71491399 4.791721105)
25,CUNDINAMARCA,25095,BITUIMA,Municipio,4.847821091,-74.52862766,POINT (-74.52862766 4.847821091)
25,CUNDINAMARCA,25099,BOJACÁ,Municipio,4.705576252,-74.3354077,POINT (-74.3354077 4.705576252)
25,CUNDINAMARCA,25120,CABRERA,Municipio,3.91861924,-74.44615606,POINT (-74.44615606 3.91861924)
25,CUNDINAMARCA,25123,CACHIPAY,Municipio,4.723063341,-74.45919528,POINT (-74.45919528 4.723063341)
25,CUNDINAMARCA,25126,CAJICÁ,Municipio,4.930402779,-74.02985115,POINT (-74.02985115 4.930402779)
25,CUNDINAMARCA,25148,CAPARRAPÍ,Municipio,5.381501399,-74.52123595,POINT (-74.52123595 5.381501399)
25,CUNDINAMARCA,25151,CÁQUEZA,Municipio,4.402259457,-73.94482435,POINT (-73.94482435 4.402259457)
25,CUNDINAMARCA,25154,CARMEN DE CARUPA,Municipio,5.338856556,-73.92614817,POINT (-73.92614817 5.338856556)
25,CUNDINAMARCA,25168,CHAGUANÍ,Municipio,4.95425175,-74.63090139,POINT (-74.63090139 4.95425175)
25,CUNDINAMARCA,25175,CHÍA,Municipio,4.857823671,-74.03809539,POINT (-74.03809539 4.857823671)
25,CUNDINAMARCA,25178,CHIPAQUE,Municipio,4.463746629,-74.04605246,POINT (-74.04605246 4.463746629)
25,CUNDINAMARCA,25181,CHOACHÍ,Municipio,4.578183896,-73.95290054,POINT (-73.95290054 4.578183896)
25,CUNDINAMARCA,25183,CHOCONTÁ,Municipio,5.118419271,-73.68068583,POINT (-73.68068583 5.118419271)
25,CUNDINAMARCA,25200,COGUA,Municipio,5.103127532,-73.97536559,POINT (-73.97536559 5.103127532)
25,CUNDINAMARCA,25214,COTA,Municipio,4.76754674,-74.1415583,POINT (-74.1415583 4.76754674)
25,CUNDINAMARCA,25224,CUCUNUBÁ,Municipio,5.230308105,-73.78001885,POINT (-73.78001885 5.230308105)
25,CUNDINAMARCA,25245,EL COLEGIO,Municipio,4.556947085,-74.42658478,POINT (-74.42658478 4.556947085)
25,CUNDINAMARCA,25258,EL PEÑÓN,Municipio,5.261728244,-74.30830564,POINT (-74.30830564 5.261728244)
25,CUNDINAMARCA,25260,EL ROSAL,Municipio,4.879723016,-74.23802273,POINT (-74.23802273 4.879723016)
25,CUNDINAMARCA,25269,FACATATIVÁ,Municipio,4.834052334,-74.3380229,POINT (-74.3380229 4.834052334)
25,CUNDINAMARCA,25279,FÓMEQUE,Municipio,4.528568462,-73.79705267,POINT (-73.79705267 4.528568462)
25,CUNDINAMARCA,25281,FOSCA,Municipio,4.316280072,-73.95286784,POINT (-73.95286784 4.316280072)
25,CUNDINAMARCA,25286,FUNZA,Municipio,4.743996711,-74.19865992,POINT (-74.19865992 4.743996711)
25,CUNDINAMARCA,25288,FÚQUENE,Municipio,5.416288902,-73.77059829,POINT (-73.77059829 5.416288902)
25,CUNDINAMARCA,25290,FUSAGASUGÁ,Municipio,4.323534028,-74.38859114,POINT (-74.38859114 4.323534028)
25,CUNDINAMARCA,25293,GACHALÁ,Municipio,4.65495513,-73.51055381,POINT (-73.51055381 4.65495513)
25,CUNDINAMARCA,25295,GACHANCIPÁ,Municipio,5.01001953,-73.87671759,POINT (-73.87671759 5.01001953)
25,CUNDINAMARCA,25297,GACHETÁ,Municipio,4.867551134,-73.61773287,POINT (-73.61773287 4.867551134)
25,CUNDINAMARCA,25299,GAMA,Municipio,4.723573464,-73.60054441,POINT (-73.60054441 4.723573464)
25,CUNDINAMARCA,25307,GIRARDOT,Municipio,4.338154518,-74.81143922,POINT (-74.81143922 4.338154518)
25,CUNDINAMARCA,25312,GRANADA,Municipio,4.523484884,-74.33724619,POINT (-74.33724619 4.523484884)
25,CUNDINAMARCA,25317,GUACHETÁ,Municipio,5.387291542,-73.69328234,POINT (-73.69328234 5.387291542)
25,CUNDINAMARCA,25320,GUADUAS,Municipio,5.173554764,-74.64014651,POINT (-74.64014651 5.173554764)
25,CUNDINAMARCA,25322,GUASCA,Municipio,4.801276832,-73.84643485,POINT (-73.84643485 4.801276832)
25,CUNDINAMARCA,25324,GUATAQUÍ,Municipio,4.516381655,-74.78257788,POINT (-74.78257788 4.516381655)
25,CUNDINAMARCA,25326,GUATAVITA,Municipio,4.91158717,-73.78648564,POINT (-73.78648564 4.91158717)
25,CUNDINAMARCA,25328,GUAYABAL DE SÍQUIMA,Municipio,4.866310254,-74.4767709,POINT (-74.4767709 4.866310254)
25,CUNDINAMARCA,25335,GUAYABETAL,Municipio,4.231875945,-73.83543981,POINT (-73.83543981 4.231875945)
25,CUNDINAMARCA,25339,GUTIÉRREZ,Municipio,4.166089563,-74.0246527,POINT (-74.0246527 4.166089563)
25,CUNDINAMARCA,25368,JERUSALÉN,Municipio,4.571350254,-74.68915854,POINT (-74.68915854 4.571350254)
25,CUNDINAMARCA,25372,JUNÍN,Municipio,4.705170789,-73.69247873,POINT (-73.69247873 4.705170789)
25,CUNDINAMARCA,25377,LA CALERA,Municipio,4.700785443,-73.92939921,POINT (-73.92939921 4.700785443)
25,CUNDINAMARCA,25386,LA MESA,Municipio,4.650773167,-74.47321717,POINT (-74.47321717 4.650773167)
25,CUNDINAMARCA,25394,LA PALMA,Municipio,5.333400646,-74.40807863,POINT (-74.40807863 5.333400646)
25,CUNDINAMARCA,25398,LA PEÑA,Municipio,5.20459882,-74.40786611,POINT (-74.40786611 5.20459882)
25,CUNDINAMARCA,25402,LA VEGA,Municipio,4.978619842,-74.33936061,POINT (-74.33936061 4.978619842)
25,CUNDINAMARCA,25407,LENGUAZAQUE,Municipio,5.303637171,-73.68153228,POINT (-73.68153228 5.303637171)
25,CUNDINAMARCA,25426,MACHETÁ,Municipio,5.040349198,-73.61738241,POINT (-73.61738241 5.040349198)
25,CUNDINAMARCA,25430,MADRID,Municipio,4.75156751,-74.2896305,POINT (-74.2896305 4.75156751)
25,CUNDINAMARCA,25436,MANTA,Municipio,4.976881151,-73.56313741,POINT (-73.56313741 4.976881151)
25,CUNDINAMARCA,25438,MEDINA,Municipio,4.484437919,-73.40598487,POINT (-73.40598487 4.484437919)
25,CUNDINAMARCA,25473,MOSQUERA,Municipio,4.672714223,-74.23573194,POINT (-74.23573194 4.672714223)
25,CUNDINAMARCA,25483,NARIÑO,Municipio,4.407952015,-74.80565317,POINT (-74.80565317 4.407952015)
25,CUNDINAMARCA,25486,NEMOCÓN,Municipio,5.093705358,-73.88380238,POINT (-73.88380238 5.093705358)
25,CUNDINAMARCA,25488,NILO,Municipio,4.294780933,-74.614695,POINT (-74.614695 4.294780933)
25,CUNDINAMARCA,25489,NIMAIMA,Municipio,5.121445325,-74.39737048,POINT (-74.39737048 5.121445325)
25,CUNDINAMARCA,25491,NOCAIMA,Municipio,5.066110761,-74.38975476,POINT (-74.38975476 5.066110761)
25,CUNDINAMARCA,25506,VENECIA,Municipio,4.063342074,-74.45259796,POINT (-74.45259796 4.063342074)
25,CUNDINAMARCA,25513,PACHO,Municipio,5.168367634,-74.16336544,POINT (-74.16336544 5.168367634)
25,CUNDINAMARCA,25518,PAIME,Municipio,5.387647345,-74.16395696,POINT (-74.16395696 5.387647345)
25,CUNDINAMARCA,25524,PANDI,Municipio,4.180497268,-74.4711213,POINT (-74.4711213 4.180497268)
25,CUNDINAMARCA,25530,PARATEBUENO,Municipio,4.368158959,-73.2416614,POINT (-73.2416614 4.368158959)
25,CUNDINAMARCA,25535,PASCA,Municipio,4.293733611,-74.27396924,POINT (-74.27396924 4.293733611)
25,CUNDINAMARCA,25572,PUERTO SALGAR,Municipio,5.619752748,-74.5801923,POINT (-74.5801923 5.619752748)
25,CUNDINAMARCA,25580,PULÍ,Municipio,4.691336253,-74.68074404,POINT (-74.68074404 4.691336253)
25,CUNDINAMARCA,25592,QUEBRADANEGRA,Municipio,5.09998103,-74.4945107,POINT (-74.4945107 5.09998103)
25,CUNDINAMARCA,25594,QUETAME,Municipio,4.334589044,-73.85264561,POINT (-73.85264561 4.334589044)
25,CUNDINAMARCA,25596,QUIPILE,Municipio,4.726907976,-74.55359926,POINT (-74.55359926 4.726907976)
25,CUNDINAMARCA,25599,APULO,Municipio,4.537711619,-74.59124656,POINT (-74.59124656 4.537711619)
25,CUNDINAMARCA,25612,RICAURTE,Municipio,4.307363489,-74.72943403,POINT (-74.72943403 4.307363489)
25,CUNDINAMARCA,25645,SAN ANTONIO DEL TEQUENDAMA,Municipio,4.599741357,-74.34490342,POINT (-74.34490342 4.599741357)
25,CUNDINAMARCA,25649,SAN BERNARDO,Municipio,4.140958464,-74.35397692,POINT (-74.35397692 4.140958464)
25,CUNDINAMARCA,25653,SAN CAYETANO,Municipio,5.314600423,-74.07232077,POINT (-74.07232077 5.314600423)
25,CUNDINAMARCA,25658,SAN FRANCISCO,Municipio,4.964100703,-74.27217129,POINT (-74.27217129 4.964100703)
25,CUNDINAMARCA,25662,SAN JUAN DE RIOSECO,Municipio,4.814537831,-74.61525985,POINT (-74.61525985 4.814537831)
25,CUNDINAMARCA,25718,SASAIMA,Municipio,4.946805263,-74.41230921,POINT (-74.41230921 4.946805263)
25,CUNDINAMARCA,25736,SESQUILÉ,Municipio,5.000633875,-73.77206544,POINT (-73.77206544 5.000633875)
25,CUNDINAMARCA,25740,SIBATÉ,Municipio,4.465970004,-74.26328963,POINT (-74.26328963 4.465970004)
25,CUNDINAMARCA,25743,SILVANIA,Municipio,4.436967141,-74.37050903,POINT (-74.37050903 4.436967141)
25,CUNDINAMARCA,25745,SIMIJACA,Municipio,5.509773128,-73.84519164,POINT (-73.84519164 5.509773128)
25,CUNDINAMARCA,25754,SOACHA,Municipio,4.581866267,-74.24029696,POINT (-74.24029696 4.581866267)
25,CUNDINAMARCA,25758,SOPÓ,Municipio,4.888060112,-73.96587528,POINT (-73.96587528 4.888060112)
25,CUNDINAMARCA,25769,SUBACHOQUE,Municipio,4.970358034,-74.15689923,POINT (-74.15689923 4.970358034)
25,CUNDINAMARCA,25772,SUESCA,Municipio,5.122728461,-73.82427313,POINT (-73.82427313 5.122728461)
25,CUNDINAMARCA,25777,SUPATÁ,Municipio,5.061692703,-74.23138328,POINT (-74.23138328 5.061692703)
25,CUNDINAMARCA,25779,SUSA,Municipio,5.440092358,-73.82392529,POINT (-73.82392529 5.440092358)
25,CUNDINAMARCA,25781,SUTATAUSA,Municipio,5.242909347,-73.85540343,POINT (-73.85540343 5.242909347)
25,CUNDINAMARCA,25785,TABIO,Municipio,4.951520046,-74.08449648,POINT (-74.08449648 4.951520046)
25,CUNDINAMARCA,25793,TAUSA,Municipio,5.170527212,-73.95819594,POINT (-73.95819594 5.170527212)
25,CUNDINAMARCA,25797,TENA,Municipio,4.666608192,-74.36764956,POINT (-74.36764956 4.666608192)
25,CUNDINAMARCA,25799,TENJO,Municipio,4.838548601,-74.14680287,POINT (-74.14680287 4.838548601)
25,CUNDINAMARCA,25805,TIBACUY,Municipio,4.321357899,-74.48667274,POINT (-74.48667274 4.321357899)
25,CUNDINAMARCA,25807,TIBIRITA,Municipio,5.084102682,-73.51362546,POINT (-73.51362546 5.084102682)
25,CUNDINAMARCA,25815,TOCAIMA,Municipio,4.452072974,-74.64864406,POINT (-74.64864406 4.452072974)
25,CUNDINAMARCA,25817,TOCANCIPÁ,Municipio,4.968852913,-73.92887021,POINT (-73.92887021 4.968852913)
25,CUNDINAMARCA,25823,TOPAIPÍ,Municipio,5.355688386,-74.28963994,POINT (-74.28963994 5.355688386)
25,CUNDINAMARCA,25839,UBALÁ,Municipio,4.803805182,-73.47654604,POINT (-73.47654604 4.803805182)
25,CUNDINAMARCA,25841,UBAQUE,Municipio,4.500754182,-73.97564545,POINT (-73.97564545 4.500754182)
25,CUNDINAMARCA,25843,VILLA DE SAN DIEGO DE UBATÉ,Municipio,5.316080652,-73.82010566,POINT (-73.82010566 5.316080652)
25,CUNDINAMARCA,25845,UNE,Municipio,4.244611163,-74.11187304,POINT (-74.11187304 4.244611163)
25,CUNDINAMARCA,25851,ÚTICA,Municipio,5.192795708,-74.47780003,POINT (-74.47780003 5.192795708)
25,CUNDINAMARCA,25862,VERGARA,Municipio,5.131267542,-74.30979229,POINT (-74.30979229 5.131267542)
25,CUNDINAMARCA,25867,VIANÍ,Municipio,4.914040619,-74.54936655,POINT (-74.54936655 4.914040619)
25,CUNDINAMARCA,25871,VILLAGÓMEZ,Municipio,5.270694636,-74.19074375,POINT (-74.19074375 5.270694636)
25,CUNDINAMARCA,25873,VILLAPINZÓN,Municipio,5.227298709,-73.57725921,POINT (-73.57725921 5.227298709)
25,CUNDINAMARCA,25875,VILLETA,Municipio,5.011670402,-74.48764746,POINT (-74.48764746 5.011670402)
25,CUNDINAMARCA,25878,VIOTÁ,Municipio,4.436054105,-74.48543339,POINT (-74.48543339 4.436054105)
25,CUNDINAMARCA,25885,YACOPÍ,Municipio,5.591910157,-74.36480865,POINT (-74.36480865 5.591910157)
25,CUNDINAMARCA,25898,ZIPACÓN,Municipio,4.75432173,-74.38673444,POINT (-74.38673444 4.75432173)
25,CUNDINAMARCA,25899,ZIPAQUIRÁ,Municipio,5.06631685,-74.04960323,POINT (-74.04960323 5.06631685)
27,CHOCÓ,27001,QUIBDÓ,Municipio,5.7543229,-76.65015147,POINT (-76.65015147 5.7543229)
27,CHOCÓ,27006,ACANDÍ,Municipio,8.383938499,-77.26560256,POINT (-77.26560256 8.383938499)
27,CHOCÓ,27025,ALTO BAUDÓ,Municipio,5.636740989,-77.0842154,POINT (-77.0842154 5.636740989)
27,CHOCÓ,27050,ATRATO,Municipio,5.525825084,-76.65064357,POINT (-76.65064357 5.525825084)
27,CHOCÓ,27073,BAGADÓ,Municipio,5.503119772,-76.19796907,POINT (-76.19796907 5.503119772)
27,CHOCÓ,27075,BAHÍA SOLANO,Municipio,6.162762775,-77.41653534,POINT (-77.41653534 6.162762775)
27,CHOCÓ,27077,BAJO BAUDÓ,Municipio,4.492865435,-77.08271352,POINT (-77.08271352 4.492865435)
27,CHOCÓ,27099,BOJAYÁ,Municipio,6.474666885,-77.09933025,POINT (-77.09933025 6.474666885)
27,CHOCÓ,27135,EL CANTÓN DEL SAN PABLO,Municipio,5.359661967,-76.77255624,POINT (-76.77255624 5.359661967)
27,CHOCÓ,27150,CARMEN DEL DARIÉN,Municipio,7.033646541,-76.97423016,POINT (-76.97423016 7.033646541)
27,CHOCÓ,27160,CÉRTEGUI,Municipio,5.389828229,-76.52264237,POINT (-76.52264237 5.389828229)
27,CHOCÓ,27205,CONDOTO,Municipio,5.070586101,-76.50701751,POINT (-76.50701751 5.070586101)
27,CHOCÓ,27245,EL CARMEN DE ATRATO,Municipio,5.810938364,-76.19189442,POINT (-76.19189442 5.810938364)
27,CHOCÓ,27250,EL LITORAL DEL SAN JUAN,Municipio,4.272940191,-76.98785828,POINT (-76.98785828 4.272940191)
27,CHOCÓ,27361,ISTMINA,Municipio,4.586818665,-77.00090737,POINT (-77.00090737 4.586818665)
27,CHOCÓ,27372,JURADÓ,Municipio,7.103338868,-77.67973662,POINT (-77.67973662 7.103338868)
27,CHOCÓ,27413,LLORÓ,Municipio,5.585101179,-76.38544449,POINT (-76.38544449 5.585101179)
27,CHOCÓ,27425,MEDIO ATRATO,Municipio,6.033880098,-76.6734697,POINT (-76.6734697 6.033880098)
27,CHOCÓ,27430,MEDIO BAUDÓ,Municipio,5.110392243,-76.99593075,POINT (-76.99593075 5.110392243)
27,CHOCÓ,27450,MEDIO SAN JUAN,Municipio,4.621182739,-76.80861843,POINT (-76.80861843 4.621182739)
27,CHOCÓ,27491,NÓVITA,Municipio,4.853386627,-76.61823669,POINT (-76.61823669 4.853386627)
27,CHOCÓ,27495,NUQUÍ,Municipio,5.591359844,-77.33057439,POINT (-77.33057439 5.591359844)
27,CHOCÓ,27580,RÍO IRÓ,Municipio,5.190995015,-76.41996151,POINT (-76.41996151 5.190995015)
27,CHOCÓ,27600,RÍO QUITO,Municipio,5.567533337,-76.81157084,POINT (-76.81157084 5.567533337)
27,CHOCÓ,27615,RIOSUCIO,Municipio,7.389887937,-77.24067483,POINT (-77.24067483 7.389887937)
27,CHOCÓ,27660,SAN JOSÉ DEL PALMAR,Municipio,4.958741345,-76.28002361,POINT (-76.28002361 4.958741345)
27,CHOCÓ,27745,SIPÍ,Municipio,4.594415157,-76.54194459,POINT (-76.54194459 4.594415157)
27,CHOCÓ,27787,TADÓ,Municipio,5.26610158,-76.33109547,POINT (-76.33109547 5.26610158)
27,CHOCÓ,27800,UNGUÍA,Municipio,8.117281079,-77.10372723,POINT (-77.10372723 8.117281079)
27,CHOCÓ,27810,UNIÓN PANAMERICANA,Municipio,5.281599258,-76.61962746,POINT (-76.61962746 5.281599258)
41,HUILA,41001,NEIVA,Municipio,2.993360046,-75.27236232,POINT (-75.27236232 2.993360046)
41,HUILA,41006,ACEVEDO,Municipio,1.709114446,-75.99664184,POINT (-75.99664184 1.709114446)
41,HUILA,41013,AGRADO,Municipio,2.26975042,-75.71632236,POINT (-75.71632236 2.26975042)
41,HUILA,41016,AIPE,Municipio,3.243441923,-75.27670655,POINT (-75.27670655 3.243441923)
41,HUILA,41020,ALGECIRAS,Municipio,2.49785068,-75.29134946,POINT (-75.29134946 2.49785068)
41,HUILA,41026,ALTAMIRA,Municipio,2.07922808,-75.76858288,POINT (-75.76858288 2.07922808)
41,HUILA,41078,BARAYA,Municipio,3.135423634,-74.95797796,POINT (-74.95797796 3.135423634)
41,HUILA,41132,CAMPOALEGRE,Municipio,2.658666675,-75.32943803,POINT (-75.32943803 2.658666675)
41,HUILA,41206,COLOMBIA,Municipio,3.262763564,-74.78516117,POINT (-74.78516117 3.262763564)
41,HUILA,41244,ELÍAS,Municipio,2.022053305,-75.94430521,POINT (-75.94430521 2.022053305)
41,HUILA,41298,GARZÓN,Municipio,2.172441496,-75.57131243,POINT (-75.57131243 2.172441496)
41,HUILA,41306,GIGANTE,Municipio,2.371781539,-75.51699754,POINT (-75.51699754 2.371781539)
41,HUILA,41319,GUADALUPE,Municipio,1.984394016,-75.69693549,POINT (-75.69693549 1.984394016)
41,HUILA,41349,HOBO,Municipio,2.541654161,-75.44781083,POINT (-75.44781083 2.541654161)
41,HUILA,41357,ÍQUIRA,Municipio,2.691517773,-75.67383141,POINT (-75.67383141 2.691517773)
41,HUILA,41359,ISNOS,Municipio,1.945591321,-76.18204722,POINT (-76.18204722 1.945591321)
41,HUILA,41378,LA ARGENTINA,Municipio,2.156287619,-76.00679451,POINT (-76.00679451 2.156287619)
41,HUILA,41396,LA PLATA,Municipio,2.328076586,-76.00117299,POINT (-76.00117299 2.328076586)
41,HUILA,41483,NÁTAGA,Municipio,2.576066285,-75.78693757,POINT (-75.78693757 2.576066285)
41,HUILA,41503,OPORAPA,Municipio,2.061191362,-76.04110289,POINT (-76.04110289 2.061191362)
41,HUILA,41518,PAICOL,Municipio,2.40689827,-75.72803027,POINT (-75.72803027 2.40689827)
41,HUILA,41524,PALERMO,Municipio,2.914491967,-75.44066118,POINT (-75.44066118 2.914491967)
41,HUILA,41530,PALESTINA,Municipio,1.68458076,-76.1478559,POINT (-76.1478559 1.68458076)
41,HUILA,41548,PITAL,Municipio,2.259601773,-75.8319516,POINT (-75.8319516 2.259601773)
41,HUILA,41551,PITALITO,Municipio,1.848217185,-76.05217643,POINT (-76.05217643 1.848217185)
41,HUILA,41615,RIVERA,Municipio,2.79286115,-75.23536868,POINT (-75.23536868 2.79286115)
41,HUILA,41660,SALADOBLANCO,Municipio,2.100382849,-76.22897871,POINT (-76.22897871 2.100382849)
41,HUILA,41668,SAN AGUSTÍN,Municipio,1.924165493,-76.4165655,POINT (-76.4165655 1.924165493)
41,HUILA,41676,SANTA MARÍA,Municipio,2.926265937,-75.63359786,POINT (-75.63359786 2.926265937)
41,HUILA,41770,SUAZA,Municipio,1.870992095,-75.80798471,POINT (-75.80798471 1.870992095)
41,HUILA,41791,TARQUI,Municipio,2.130280544,-75.87534845,POINT (-75.87534845 2.130280544)
41,HUILA,41797,TESALIA,Municipio,2.526855132,-75.68259642,POINT (-75.68259642 2.526855132)
41,HUILA,41799,TELLO,Municipio,3.030611777,-75.08536553,POINT (-75.08536553 3.030611777)
41,HUILA,41801,TERUEL,Municipio,2.851852692,-75.75988934,POINT (-75.75988934 2.851852692)
41,HUILA,41807,TIMANÁ,Municipio,1.950715226,-75.91757649,POINT (-75.91757649 1.950715226)
41,HUILA,41872,VILLAVIEJA,Municipio,3.287057875,-75.13838292,POINT (-75.13838292 3.287057875)
41,HUILA,41885,YAGUARÁ,Municipio,2.646563339,-75.51592645,POINT (-75.51592645 2.646563339)
44,LA GUAJIRA,44001,RIOHACHA,Municipio,11.24297214,-72.95876315,POINT (-72.95876315 11.24297214)
44,LA GUAJIRA,44035,ALBANIA,Municipio,11.22869049,-72.53209657,POINT (-72.53209657 11.22869049)
44,LA GUAJIRA,44078,BARRANCAS,Municipio,10.94871677,-72.69696879,POINT (-72.69696879 10.94871677)
44,LA GUAJIRA,44090,DIBULLA,Municipio,11.09029715,-73.43568788,POINT (-73.43568788 11.09029715)
44,LA GUAJIRA,44098,DISTRACCIÓN,Municipio,10.92505107,-72.94444027,POINT (-72.94444027 10.92505107)
44,LA GUAJIRA,44110,EL MOLINO,Municipio,10.63669646,-72.8858431,POINT (-72.8858431 10.63669646)
44,LA GUAJIRA,44279,FONSECA,Municipio,10.8283716,-72.8018178,POINT (-72.8018178 10.8283716)
44,LA GUAJIRA,44378,HATONUEVO,Municipio,11.09905582,-72.73842427,POINT (-72.73842427 11.09905582)
44,LA GUAJIRA,44420,LA JAGUA DEL PILAR,Municipio,10.4580941,-73.07209193,POINT (-73.07209193 10.4580941)
44,LA GUAJIRA,44430,MAICAO,Municipio,11.38157764,-72.29500818,POINT (-72.29500818 11.38157764)
44,LA GUAJIRA,44560,MANAURE,Municipio,11.60554263,-72.57160392,POINT (-72.57160392 11.60554263)
44,LA GUAJIRA,44650,SAN JUAN DEL CESAR,Municipio,10.81311496,-73.08659986,POINT (-73.08659986 10.81311496)
44,LA GUAJIRA,44847,URIBIA,Municipio,11.99971986,-71.74882662,POINT (-71.74882662 11.99971986)
44,LA GUAJIRA,44855,URUMITA,Municipio,10.4947021,-72.98623991,POINT (-72.98623991 10.4947021)
44,LA GUAJIRA,44874,VILLANUEVA,Municipio,10.58364755,-72.97520286,POINT (-72.97520286 10.58364755)
47,MAGDALENA,47001,SANTA MARTA,Municipio,11.12189436,-73.88527855,POINT (-73.88527855 11.12189436)
47,MAGDALENA,47030,ALGARROBO,Municipio,10.25356475,-74.10323027,POINT (-74.10323027 10.25356475)
47,MAGDALENA,47053,ARACATACA,Municipio,10.64490877,-73.87972257,POINT (-73.87972257 10.64490877)
47,MAGDALENA,47058,ARIGUANÍ,Municipio,9.834264955,-74.08460085,POINT (-74.08460085 9.834264955)
47,MAGDALENA,47161,CERRO DE SAN ANTONIO,Municipio,10.3132933,-74.80834413,POINT (-74.80834413 10.3132933)
47,MAGDALENA,47170,CHIVOLO,Municipio,10.09951961,-74.52606667,POINT (-74.52606667 10.09951961)
47,MAGDALENA,47189,CIÉNAGA,Municipio,10.85754552,-74.02500493,POINT (-74.02500493 10.85754552)
47,MAGDALENA,47205,CONCORDIA,Municipio,10.23284801,-74.77810175,POINT (-74.77810175 10.23284801)
47,MAGDALENA,47245,EL BANCO,Municipio,9.114930635,-73.98105491,POINT (-73.98105491 9.114930635)
47,MAGDALENA,47258,EL PIÑÓN,Municipio,10.34310988,-74.67817756,POINT (-74.67817756 10.34310988)
47,MAGDALENA,47268,EL RETÉN,Municipio,10.65961696,-74.3251597,POINT (-74.3251597 10.65961696)
47,MAGDALENA,47288,FUNDACIÓN,Municipio,10.45937818,-73.88406518,POINT (-73.88406518 10.45937818)
47,MAGDALENA,47318,GUAMAL,Municipio,9.248004673,-74.13968085,POINT (-74.13968085 9.248004673)
47,MAGDALENA,47460,NUEVA GRANADA,Municipio,9.735998134,-74.32840222,POINT (-74.32840222 9.735998134)
47,MAGDALENA,47541,PEDRAZA,Municipio,10.15429546,-74.83178091,POINT (-74.83178091 10.15429546)
47,MAGDALENA,47545,PIJIÑO DEL CARMEN,Municipio,9.530748654,-74.1447657,POINT (-74.1447657 9.530748654)
47,MAGDALENA,47551,PIVIJAY,Municipio,10.43303399,-74.41251197,POINT (-74.41251197 10.43303399)
47,MAGDALENA,47555,PLATO,Municipio,9.76945611,-74.60181576,POINT (-74.60181576 9.76945611)
47,MAGDALENA,47570,PUEBLOVIEJO,Municipio,10.84758901,-74.36057942,POINT (-74.36057942 10.84758901)
47,MAGDALENA,47605,REMOLINO,Municipio,10.64860351,-74.58106823,POINT (-74.58106823 10.64860351)
47,MAGDALENA,47660,SABANAS DE SAN ÁNGEL,Municipio,10.10533028,-74.2644392,POINT (-74.2644392 10.10533028)
47,MAGDALENA,47675,SALAMINA,Municipio,10.51538178,-74.72296972,POINT (-74.72296972 10.51538178)
47,MAGDALENA,47692,SAN SEBASTIÁN DE BUENAVISTA,Municipio,9.380680272,-74.19797988,POINT (-74.19797988 9.380680272)
47,MAGDALENA,47703,SAN ZENÓN,Municipio,9.306869548,-74.35851644,POINT (-74.35851644 9.306869548)
47,MAGDALENA,47707,SANTA ANA,Municipio,9.503097215,-74.44419381,POINT (-74.44419381 9.503097215)
47,MAGDALENA,47720,SANTA BÁRBARA DE PINTO,Municipio,9.484388135,-74.66521178,POINT (-74.66521178 9.484388135)
47,MAGDALENA,47745,SITIONUEVO,Municipio,10.89027616,-74.62966038,POINT (-74.62966038 10.89027616)
47,MAGDALENA,47798,TENERIFE,Municipio,9.924701267,-74.73263001,POINT (-74.73263001 9.924701267)
47,MAGDALENA,47960,ZAPAYÁN,Municipio,10.11779893,-74.69115456,POINT (-74.69115456 10.11779893)
47,MAGDALENA,47980,ZONA BANANERA,Municipio,10.79634658,-74.17798317,POINT (-74.17798317 10.79634658)
50,META,50001,VILLAVICENCIO,Municipio,4.09166877,-73.49291595,POINT (-73.49291595 4.09166877)
50,META,50006,ACACÍAS,Municipio,3.943383008,-73.57135162,POINT (-73.57135162 3.943383008)
50,META,50110,BARRANCA DE UPÍA,Municipio,4.519076127,-72.99548981,POINT (-72.99548981 4.519076127)
50,META,50124,CABUYARO,Municipio,4.315244759,-72.95268896,POINT (-72.95268896 4.315244759)
50,META,50150,CASTILLA LA NUEVA,Municipio,3.805154089,-73.53886668,POINT (-73.53886668 3.805154089)
50,META,50223,CUBARRAL,Municipio,3.834631516,-74.06232494,POINT (-74.06232494 3.834631516)
50,META,50226,CUMARAL,Municipio,4.232526389,-73.31477539,POINT (-73.31477539 4.232526389)
50,META,50245,EL CALVARIO,Municipio,4.353769888,-73.71441684,POINT (-73.71441684 4.353769888)
50,META,50251,EL CASTILLO,Municipio,3.60282633,-73.89445238,POINT (-73.89445238 3.60282633)
50,META,50270,EL DORADO,Municipio,3.706969785,-73.83161892,POINT (-73.83161892 3.706969785)
50,META,50287,FUENTE DE ORO,Municipio,3.382370124,-73.59625429,POINT (-73.59625429 3.382370124)
50,META,50313,GRANADA,Municipio,3.441051399,-73.7611547,POINT (-73.7611547 3.441051399)
50,META,50318,GUAMAL,Municipio,3.947775585,-73.95983864,POINT (-73.95983864 3.947775585)
50,META,50325,MAPIRIPÁN,Municipio,3.117523361,-71.93805692,POINT (-71.93805692 3.117523361)
50,META,50330,MESETAS,Municipio,3.154771201,-74.12454824,POINT (-74.12454824 3.154771201)
50,META,50350,LA MACARENA,Municipio,2.161863917,-74.09488076,POINT (-74.09488076 2.161863917)
50,META,50370,URIBE,Municipio,3.047726858,-74.43066134,POINT (-74.43066134 3.047726858)
50,META,50400,LEJANÍAS,Municipio,3.614714873,-74.09628467,POINT (-74.09628467 3.614714873)
50,META,50450,PUERTO CONCORDIA,Municipio,2.752260112,-72.7210941,POINT (-72.7210941 2.752260112)
50,META,50568,PUERTO GAITÁN,Municipio,4.005034467,-71.63157429,POINT (-71.63157429 4.005034467)
50,META,50573,PUERTO LÓPEZ,Municipio,4.014298921,-72.64570499,POINT (-72.64570499 4.014298921)
50,META,50577,PUERTO LLERAS,Municipio,3.193092925,-73.23671436,POINT (-73.23671436 3.193092925)
50,META,50590,PUERTO RICO,Municipio,2.758083657,-73.13780171,POINT (-73.13780171 2.758083657)
50,META,50606,RESTREPO,Municipio,4.204310977,-73.50226037,POINT (-73.50226037 4.204310977)
50,META,50680,SAN CARLOS DE GUAROA,Municipio,3.84761678,-73.27583401,POINT (-73.27583401 3.84761678)
50,META,50683,SAN JUAN DE ARAMA,Municipio,3.289851171,-73.81635243,POINT (-73.81635243 3.289851171)
50,META,50686,SAN JUANITO,Municipio,4.471346322,-73.66041355,POINT (-73.66041355 4.471346322)
50,META,50689,SAN MARTÍN,Municipio,3.515860962,-72.65672742,POINT (-72.65672742 3.515860962)
50,META,50711,VISTAHERMOSA,Municipio,2.811616698,-73.66652234,POINT (-73.66652234 2.811616698)
52,NARIÑO,52001,PASTO,Municipio,1.083605497,-77.20610074,POINT (-77.20610074 1.083605497)
52,NARIÑO,52019,ALBÁN,Municipio,1.469854084,-77.06880947,POINT (-77.06880947 1.469854084)
52,NARIÑO,52022,ALDANA,Municipio,0.913431916,-77.69538731,POINT (-77.69538731 0.913431916)
52,NARIÑO,52036,ANCUYA,Municipio,1.245254077,-77.53115777,POINT (-77.53115777 1.245254077)
52,NARIÑO,52051,ARBOLEDA,Municipio,1.480051172,-77.12985001,POINT (-77.12985001 1.480051172)
52,NARIÑO,52079,BARBACOAS,Municipio,1.44563774,-78.15621072,POINT (-78.15621072 1.44563774)
52,NARIÑO,52083,BELÉN,Municipio,1.593645287,-77.01999366,POINT (-77.01999366 1.593645287)
52,NARIÑO,52110,BUESACO,Municipio,1.315215636,-77.1163664,POINT (-77.1163664 1.315215636)
52,NARIÑO,52203,COLÓN,Municipio,1.636334379,-77.0473156,POINT (-77.0473156 1.636334379)
52,NARIÑO,52207,CONSACÁ,Municipio,1.209066732,-77.44063921,POINT (-77.44063921 1.209066732)
52,NARIÑO,52210,CONTADERO,Municipio,0.932667458,-77.52808731,POINT (-77.52808731 0.932667458)
52,NARIÑO,52215,CÓRDOBA,Municipio,0.78274688,-77.36805903,POINT (-77.36805903 0.78274688)
52,NARIÑO,52224,CUASPUD CARLOSAMA,Municipio,0.875426999,-77.73591601,POINT (-77.73591601 0.875426999)
52,NARIÑO,52227,CUMBAL,Municipio,0.944223274,-77.95958446,POINT (-77.95958446 0.944223274)
52,NARIÑO,52233,CUMBITARA,Municipio,1.72559011,-77.59281637,POINT (-77.59281637 1.72559011)
52,NARIÑO,52240,CHACHAGÜÍ,Municipio,1.386497844,-77.26969022,POINT (-77.26969022 1.386497844)
52,NARIÑO,52250,EL CHARCO,Municipio,2.216382295,-77.99533234,POINT (-77.99533234 2.216382295)
52,NARIÑO,52254,EL PEÑOL,Municipio,1.512283967,-77.43050934,POINT (-77.43050934 1.512283967)
52,NARIÑO,52256,EL ROSARIO,Municipio,1.887689437,-77.48319589,POINT (-77.48319589 1.887689437)
52,NARIÑO,52258,EL TABLÓN DE GÓMEZ,Municipio,1.409430207,-76.98526959,POINT (-76.98526959 1.409430207)
52,NARIÑO,52260,EL TAMBO,Municipio,1.43026376,-77.38311597,POINT (-77.38311597 1.43026376)
52,NARIÑO,52287,FUNES,Municipio,0.957786429,-77.39532781,POINT (-77.39532781 0.957786429)
52,NARIÑO,52317,GUACHUCAL,Municipio,0.975037904,-77.73758941,POINT (-77.73758941 0.975037904)
52,NARIÑO,52320,GUAITARILLA,Municipio,1.151366658,-77.53011336,POINT (-77.53011336 1.151366658)
52,NARIÑO,52323,GUALMATÁN,Municipio,0.928642623,-77.58261883,POINT (-77.58261883 0.928642623)
52,NARIÑO,52352,ILES,Municipio,0.980534037,-77.5186573,POINT (-77.5186573 0.980534037)
52,NARIÑO,52354,IMUÉS,Municipio,1.07287697,-77.50150864,POINT (-77.50150864 1.07287697)
52,NARIÑO,52356,IPIALES,Municipio,0.497708465,-77.24047625,POINT (-77.24047625 0.497708465)
52,NARIÑO,52378,LA CRUZ,Municipio,1.584175998,-76.92335262,POINT (-76.92335262 1.584175998)
52,NARIÑO,52381,LA FLORIDA,Municipio,1.338034371,-77.42293041,POINT (-77.42293041 1.338034371)
52,NARIÑO,52385,LA LLANADA,Municipio,1.541847847,-77.61781608,POINT (-77.61781608 1.541847847)
52,NARIÑO,52390,LA TOLA,Municipio,2.56027333,-78.23506694,POINT (-78.23506694 2.56027333)
52,NARIÑO,52399,LA UNIÓN,Municipio,1.619697376,-77.14284622,POINT (-77.14284622 1.619697376)
52,NARIÑO,52405,LEIVA,Municipio,1.900862361,-77.31220073,POINT (-77.31220073 1.900862361)
52,NARIÑO,52411,LINARES,Municipio,1.395173084,-77.52093774,POINT (-77.52093774 1.395173084)
52,NARIÑO,52418,LOS ANDES,Municipio,1.672601269,-77.71054449,POINT (-77.71054449 1.672601269)
52,NARIÑO,52427,MAGÜÍ,Municipio,1.906858429,-78.04473644,POINT (-78.04473644 1.906858429)
52,NARIÑO,52435,MALLAMA,Municipio,1.155947016,-77.84664646,POINT (-77.84664646 1.155947016)
52,NARIÑO,52473,MOSQUERA,Municipio,2.442493698,-78.438827,POINT (-78.438827 2.442493698)
52,NARIÑO,52480,NARIÑO,Municipio,1.286775273,-77.35220367,POINT (-77.35220367 1.286775273)
52,NARIÑO,52490,OLAYA HERRERA,Municipio,2.287856547,-78.31219024,POINT (-78.31219024 2.287856547)
52,NARIÑO,52506,OSPINA,Municipio,1.029815854,-77.55234944,POINT (-77.55234944 1.029815854)
52,NARIÑO,52520,FRANCISCO PIZARRO,Municipio,2.088531925,-78.59193099,POINT (-78.59193099 2.088531925)
52,NARIÑO,52540,POLICARPA,Municipio,1.735354202,-77.48134359,POINT (-77.48134359 1.735354202)
52,NARIÑO,52560,POTOSÍ,Municipio,0.785841088,-77.52870407,POINT (-77.52870407 0.785841088)
52,NARIÑO,52565,PROVIDENCIA,Municipio,1.232864821,-77.59844212,POINT (-77.59844212 1.232864821)
52,NARIÑO,52573,PUERRES,Municipio,0.854351651,-77.35032523,POINT (-77.35032523 0.854351651)
52,NARIÑO,52585,PUPIALES,Municipio,0.916769831,-77.63336954,POINT (-77.63336954 0.916769831)
52,NARIÑO,52612,RICAURTE,Municipio,1.147671848,-78.05811118,POINT (-78.05811118 1.147671848)
52,NARIÑO,52621,ROBERTO PAYÁN,Municipio,1.897581156,-78.3811163,POINT (-78.3811163 1.897581156)
52,NARIÑO,52678,SAMANIEGO,Municipio,1.430555262,-77.69179559,POINT (-77.69179559 1.430555262)
52,NARIÑO,52683,SANDONÁ,Municipio,1.288105409,-77.45670068,POINT (-77.45670068 1.288105409)
52,NARIÑO,52685,SAN BERNARDO,Municipio,1.529782485,-77.02070663,POINT (-77.02070663 1.529782485)
52,NARIÑO,52687,SAN LORENZO,Municipio,1.542139582,-77.21872693,POINT (-77.21872693 1.542139582)
52,NARIÑO,52693,SAN PABLO,Municipio,1.681576627,-76.97527979,POINT (-76.97527979 1.681576627)
52,NARIÑO,52694,SAN PEDRO DE CARTAGO,Municipio,1.536823494,-77.10140325,POINT (-77.10140325 1.536823494)
52,NARIÑO,52696,SANTA BÁRBARA,Municipio,2.494420411,-77.98256461,POINT (-77.98256461 2.494420411)
52,NARIÑO,52699,SANTACRUZ,Municipio,1.285179376,-77.7445744,POINT (-77.7445744 1.285179376)
52,NARIÑO,52720,SAPUYES,Municipio,1.045287475,-77.71810954,POINT (-77.71810954 1.045287475)
52,NARIÑO,52786,TAMINANGO,Municipio,1.591661392,-77.32525316,POINT (-77.32525316 1.591661392)
52,NARIÑO,52788,TANGUA,Municipio,1.064078111,-77.35063491,POINT (-77.35063491 1.064078111)
52,NARIÑO,52835,SAN ANDRÉS DE TUMACO,Municipio,1.574550638,-78.61540963,POINT (-78.61540963 1.574550638)
52,NARIÑO,52838,TÚQUERRES,Municipio,1.134440523,-77.63073238,POINT (-77.63073238 1.134440523)
52,NARIÑO,52885,YACUANQUER,Municipio,1.125547916,-77.42467569,POINT (-77.42467569 1.125547916)
54,NORTE DE SANTANDER,54001,SAN JOSÉ DE CÚCUTA,Municipio,8.112041811,-72.48862641,POINT (-72.48862641 8.112041811)
54,NORTE DE SANTANDER,54003,ÁBREGO,Municipio,8.019834481,-73.15850485,POINT (-73.15850485 8.019834481)
54,NORTE DE SANTANDER,54051,ARBOLEDAS,Municipio,7.586048164,-72.91705315,POINT (-72.91705315 7.586048164)
54,NORTE DE SANTANDER,54099,BOCHALEMA,Municipio,7.608509339,-72.65951909,POINT (-72.65951909 7.608509339)
54,NORTE DE SANTANDER,54109,BUCARASICA,Municipio,8.079802239,-72.92919926,POINT (-72.92919926 8.079802239)
54,NORTE DE SANTANDER,54125,CÁCOTA,Municipio,7.270560088,-72.65212153,POINT (-72.65212153 7.270560088)
54,NORTE DE SANTANDER,54128,CÁCHIRA,Municipio,7.684188896,-73.12939481,POINT (-73.12939481 7.684188896)
54,NORTE DE SANTANDER,54172,CHINÁCOTA,Municipio,7.583353136,-72.58390978,POINT (-72.58390978 7.583353136)
54,NORTE DE SANTANDER,54174,CHITAGÁ,Municipio,7.05161677,-72.52544746,POINT (-72.52544746 7.05161677)
54,NORTE DE SANTANDER,54206,CONVENCIÓN,Municipio,8.873159895,-73.20007769,POINT (-73.20007769 8.873159895)
54,NORTE DE SANTANDER,54223,CUCUTILLA,Municipio,7.502182366,-72.79703447,POINT (-72.79703447 7.502182366)
54,NORTE DE SANTANDER,54239,DURANIA,Municipio,7.746993206,-72.67208072,POINT (-72.67208072 7.746993206)
54,NORTE DE SANTANDER,54245,EL CARMEN,Municipio,8.867990035,-73.34585922,POINT (-73.34585922 8.867990035)
54,NORTE DE SANTANDER,54250,EL TARRA,Municipio,8.678263671,-73.0317597,POINT (-73.0317597 8.678263671)
54,NORTE DE SANTANDER,54261,EL ZULIA,Municipio,8.081200092,-72.63152118,POINT (-72.63152118 8.081200092)
54,NORTE DE SANTANDER,54313,GRAMALOTE,Municipio,7.906522991,-72.80705582,POINT (-72.80705582 7.906522991)
54,NORTE DE SANTANDER,54344,HACARÍ,Municipio,8.361831987,-73.0782633,POINT (-73.0782633 8.361831987)
54,NORTE DE SANTANDER,54347,HERRÁN,Municipio,7.493955781,-72.49269998,POINT (-72.49269998 7.493955781)
54,NORTE DE SANTANDER,54377,LABATECA,Municipio,7.218372474,-72.48281514,POINT (-72.48281514 7.218372474)
54,NORTE DE SANTANDER,54385,LA ESPERANZA,Municipio,7.695233593,-73.36139672,POINT (-73.36139672 7.695233593)
54,NORTE DE SANTANDER,54398,LA PLAYA,Municipio,8.256757875,-73.18789327,POINT (-73.18789327 8.256757875)
54,NORTE DE SANTANDER,54405,LOS PATIOS,Municipio,7.742291094,-72.52680784,POINT (-72.52680784 7.742291094)
54,NORTE DE SANTANDER,54418,LOURDES,Municipio,7.963712759,-72.8467029,POINT (-72.8467029 7.963712759)
54,NORTE DE SANTANDER,54480,MUTISCUA,Municipio,7.31694997,-72.76834584,POINT (-72.76834584 7.31694997)
54,NORTE DE SANTANDER,54498,OCAÑA,Municipio,8.206637527,-73.33765033,POINT (-73.33765033 8.206637527)
54,NORTE DE SANTANDER,54518,PAMPLONA,Municipio,7.379057623,-72.67590348,POINT (-72.67590348 7.379057623)
54,NORTE DE SANTANDER,54520,PAMPLONITA,Municipio,7.48287886,-72.63515401,POINT (-72.63515401 7.48287886)
54,NORTE DE SANTANDER,54553,PUERTO SANTANDER,Municipio,8.329138642,-72.41119066,POINT (-72.41119066 8.329138642)
54,NORTE DE SANTANDER,54599,RAGONVALIA,Municipio,7.595355974,-72.50756622,POINT (-72.50756622 7.595355974)
54,NORTE DE SANTANDER,54660,SALAZAR,Municipio,7.772747824,-72.86769959,POINT (-72.86769959 7.772747824)
54,NORTE DE SANTANDER,54670,SAN CALIXTO,Municipio,8.414441404,-73.2176038,POINT (-73.2176038 8.414441404)
54,NORTE DE SANTANDER,54673,SAN CAYETANO,Municipio,7.847872195,-72.60971203,POINT (-72.60971203 7.847872195)
54,NORTE DE SANTANDER,54680,SANTIAGO,Municipio,7.889234454,-72.7182541,POINT (-72.7182541 7.889234454)
54,NORTE DE SANTANDER,54720,SARDINATA,Municipio,8.215080767,-72.79580961,POINT (-72.79580961 8.215080767)
54,NORTE DE SANTANDER,54743,SILOS,Municipio,7.180991879,-72.78617884,POINT (-72.78617884 7.180991879)
54,NORTE DE SANTANDER,54800,TEORAMA,Municipio,8.760013794,-73.15714097,POINT (-73.15714097 8.760013794)
54,NORTE DE SANTANDER,54810,TIBÚ,Municipio,8.713507237,-72.79925855,POINT (-72.79925855 8.713507237)
54,NORTE DE SANTANDER,54820,TOLEDO,Municipio,7.225864961,-72.30593418,POINT (-72.30593418 7.225864961)
54,NORTE DE SANTANDER,54871,VILLA CARO,Municipio,7.936293173,-72.98759418,POINT (-72.98759418 7.936293173)
54,NORTE DE SANTANDER,54874,VILLA DEL ROSARIO,Municipio,7.718635863,-72.48361176,POINT (-72.48361176 7.718635863)
63,QUINDÍO,63001,ARMENIA,Municipio,4.499501128,-75.72489985,POINT (-75.72489985 4.499501128)
63,QUINDÍO,63111,BUENAVISTA,Municipio,4.366632382,-75.74403734,POINT (-75.74403734 4.366632382)
63,QUINDÍO,63130,CALARCÁ,Municipio,4.467879428,-75.65674719,POINT (-75.65674719 4.467879428)
63,QUINDÍO,63190,CIRCASIA,Municipio,4.604845344,-75.66688449,POINT (-75.66688449 4.604845344)
63,QUINDÍO,63212,CÓRDOBA,Municipio,4.395975176,-75.65132308,POINT (-75.65132308 4.395975176)
63,QUINDÍO,63272,FILANDIA,Municipio,4.669325347,-75.67146941,POINT (-75.67146941 4.669325347)
63,QUINDÍO,63302,GÉNOVA,Municipio,4.180107773,-75.76056695,POINT (-75.76056695 4.180107773)
63,QUINDÍO,63401,LA TEBAIDA,Municipio,4.426884849,-75.81927335,POINT (-75.81927335 4.426884849)
63,QUINDÍO,63470,MONTENEGRO,Municipio,4.521890945,-75.81806594,POINT (-75.81806594 4.521890945)
63,QUINDÍO,63548,PIJAO,Municipio,4.30397934,-75.68330417,POINT (-75.68330417 4.30397934)
63,QUINDÍO,63594,QUIMBAYA,Municipio,4.610273497,-75.79205087,POINT (-75.79205087 4.610273497)
63,QUINDÍO,63690,SALENTO,Municipio,4.611314654,-75.53092112,POINT (-75.53092112 4.611314654)
66,RISARALDA,66001,PEREIRA,Municipio,4.803662773,-75.79579093,POINT (-75.79579093 4.803662773)
66,RISARALDA,66045,APÍA,Municipio,5.139635357,-75.95353871,POINT (-75.95353871 5.139635357)
66,RISARALDA,66075,BALBOA,Municipio,4.918349676,-75.94275386,POINT (-75.94275386 4.918349676)
66,RISARALDA,66088,BELÉN DE UMBRÍA,Municipio,5.200398696,-75.86793893,POINT (-75.86793893 5.200398696)
66,RISARALDA,66170,DOSQUEBRADAS,Municipio,4.842021144,-75.66993655,POINT (-75.66993655 4.842021144)
66,RISARALDA,66318,GUÁTICA,Municipio,5.320295966,-75.80436659,POINT (-75.80436659 5.320295966)
66,RISARALDA,66383,LA CELIA,Municipio,4.988127679,-76.00822678,POINT (-76.00822678 4.988127679)
66,RISARALDA,66400,LA VIRGINIA,Municipio,4.904704187,-75.85208162,POINT (-75.85208162 4.904704187)
66,RISARALDA,66440,MARSELLA,Municipio,4.942936185,-75.7532139,POINT (-75.7532139 4.942936185)
66,RISARALDA,66456,MISTRATÓ,Municipio,5.414078141,-75.96135387,POINT (-75.96135387 5.414078141)
66,RISARALDA,66572,PUEBLO RICO,Municipio,5.286295408,-76.07359421,POINT (-76.07359421 5.286295408)
66,RISARALDA,66594,QUINCHÍA,Municipio,5.323906864,-75.71339683,POINT (-75.71339683 5.323906864)
66,RISARALDA,66682,SANTA ROSA DE CABAL,Municipio,4.833789828,-75.54950174,POINT (-75.54950174 4.833789828)
66,RISARALDA,66687,SANTUARIO,Municipio,5.076100313,-76.02286946,POINT (-76.02286946 5.076100313)
68,SANTANDER,68001,BUCARAMANGA,Municipio,7.155833544,-73.11156997,POINT (-73.11156997 7.155833544)
68,SANTANDER,68013,AGUADA,Municipio,6.182208476,-73.53038541,POINT (-73.53038541 6.182208476)
68,SANTANDER,68020,ALBANIA,Municipio,5.788190519,-73.79236929,POINT (-73.79236929 5.788190519)
68,SANTANDER,68051,ARATOCA,Municipio,6.716766585,-73.01162697,POINT (-73.01162697 6.716766585)
68,SANTANDER,68077,BARBOSA,Municipio,5.955617327,-73.62345229,POINT (-73.62345229 5.955617327)
68,SANTANDER,68079,BARICHARA,Municipio,6.647062543,-73.21518466,POINT (-73.21518466 6.647062543)
68,SANTANDER,68081,BARRANCABERMEJA,Municipio,7.054074558,-73.78211646,POINT (-73.78211646 7.054074558)
68,SANTANDER,68092,BETULIA,Municipio,7.033255886,-73.37872388,POINT (-73.37872388 7.033255886)
68,SANTANDER,68101,BOLÍVAR,Municipio,6.181715586,-73.92065703,POINT (-73.92065703 6.181715586)
68,SANTANDER,68121,CABRERA,Municipio,6.562543673,-73.25034892,POINT (-73.25034892 6.562543673)
68,SANTANDER,68132,CALIFORNIA,Municipio,7.331565443,-72.95131825,POINT (-72.95131825 7.331565443)
68,SANTANDER,68147,CAPITANEJO,Municipio,6.520200095,-72.67435203,POINT (-72.67435203 6.520200095)
68,SANTANDER,68152,CARCASÍ,Municipio,6.659675274,-72.56968434,POINT (-72.56968434 6.659675274)
68,SANTANDER,68160,CEPITÁ,Municipio,6.752465533,-72.92924629,POINT (-72.92924629 6.752465533)
68,SANTANDER,68162,CERRITO,Municipio,6.903923173,-72.64536324,POINT (-72.64536324 6.903923173)
68,SANTANDER,68167,CHARALÁ,Municipio,6.35099819,-73.06101382,POINT (-73.06101382 6.35099819)
68,SANTANDER,68169,CHARTA,Municipio,7.282973001,-72.97829057,POINT (-72.97829057 7.282973001)
68,SANTANDER,68176,CHIMA,Municipio,6.361627641,-73.40172144,POINT (-73.40172144 6.361627641)
68,SANTANDER,68179,CHIPATÁ,Municipio,6.067944658,-73.63239132,POINT (-73.63239132 6.067944658)
68,SANTANDER,68190,CIMITARRA,Municipio,6.40972961,-74.17030427,POINT (-74.17030427 6.40972961)
68,SANTANDER,68207,CONCEPCIÓN,Municipio,6.76062337,-72.61815735,POINT (-72.61815735 6.76062337)
68,SANTANDER,68209,CONFINES,Municipio,6.342314443,-73.25014013,POINT (-73.25014013 6.342314443)
68,SANTANDER,68211,CONTRATACIÓN,Municipio,6.303116611,-73.50211527,POINT (-73.50211527 6.303116611)
68,SANTANDER,68217,COROMORO,Municipio,6.234735779,-72.98176803,POINT (-72.98176803 6.234735779)
68,SANTANDER,68229,CURITÍ,Municipio,6.608966483,-73.05897888,POINT (-73.05897888 6.608966483)
68,SANTANDER,68235,EL CARMEN DE CHUCURÍ,Municipio,6.664260002,-73.56475288,POINT (-73.56475288 6.664260002)
68,SANTANDER,68245,EL GUACAMAYO,Municipio,6.236115743,-73.4977605,POINT (-73.4977605 6.236115743)
68,SANTANDER,68250,EL PEÑÓN,Municipio,6.123389691,-74.00040397,POINT (-74.00040397 6.123389691)
68,SANTANDER,68255,EL PLAYÓN,Municipio,7.524284721,-73.18158192,POINT (-73.18158192 7.524284721)
68,SANTANDER,68264,ENCINO,Municipio,6.079061224,-73.06206665,POINT (-73.06206665 6.079061224)
68,SANTANDER,68266,ENCISO,Municipio,6.65824115,-72.68027939,POINT (-72.68027939 6.65824115)
68,SANTANDER,68271,FLORIÁN,Municipio,5.801106291,-73.95524931,POINT (-73.95524931 5.801106291)
68,SANTANDER,68276,FLORIDABLANCA,Municipio,7.079704598,-73.0679925,POINT (-73.0679925 7.079704598)
68,SANTANDER,68296,GALÁN,Municipio,6.671810994,-73.32467124,POINT (-73.32467124 6.671810994)
68,SANTANDER,68298,GÁMBITA,Municipio,5.924383558,-73.31939934,POINT (-73.31939934 5.924383558)
68,SANTANDER,68307,GIRÓN,Municipio,6.976734127,-73.205267,POINT (-73.205267 6.976734127)
68,SANTANDER,68318,GUACA,Municipio,6.9434341,-72.82369873,POINT (-72.82369873 6.9434341)
68,SANTANDER,68320,GUADALUPE,Municipio,6.233278248,-73.40977445,POINT (-73.40977445 6.233278248)
68,SANTANDER,68322,GUAPOTÁ,Municipio,6.319299865,-73.33115275,POINT (-73.33115275 6.319299865)
68,SANTANDER,68324,GUAVATÁ,Municipio,5.944894844,-73.72173671,POINT (-73.72173671 5.944894844)
68,SANTANDER,68327,GÜEPSA,Municipio,6.04656148,-73.57847854,POINT (-73.57847854 6.04656148)
68,SANTANDER,68344,HATO,Municipio,6.559878299,-73.36178841,POINT (-73.36178841 6.559878299)
68,SANTANDER,68368,JESÚS MARÍA,Municipio,5.872705896,-73.78997419,POINT (-73.78997419 5.872705896)
68,SANTANDER,68370,JORDÁN,Municipio,6.710814846,-73.1211236,POINT (-73.1211236 6.710814846)
68,SANTANDER,68377,LA BELLEZA,Municipio,5.895724341,-74.04676575,POINT (-74.04676575 5.895724341)
68,SANTANDER,68385,LANDÁZURI,Municipio,6.385234814,-73.78760899,POINT (-73.78760899 6.385234814)
68,SANTANDER,68397,LA PAZ,Municipio,6.21737437,-73.62977195,POINT (-73.62977195 6.21737437)
68,SANTANDER,68406,LEBRIJA,Municipio,7.204060063,-73.29138097,POINT (-73.29138097 7.204060063)
68,SANTANDER,68418,LOS SANTOS,Municipio,6.812162934,-73.10785086,POINT (-73.10785086 6.812162934)
68,SANTANDER,68425,MACARAVITA,Municipio,6.513745303,-72.58536492,POINT (-72.58536492 6.513745303)
68,SANTANDER,68432,MÁLAGA,Municipio,6.720222349,-72.73841091,POINT (-72.73841091 6.720222349)
68,SANTANDER,68444,MATANZA,Municipio,7.348778319,-73.05438997,POINT (-73.05438997 7.348778319)
68,SANTANDER,68464,MOGOTES,Municipio,6.492532315,-72.95834772,POINT (-72.95834772 6.492532315)
68,SANTANDER,68468,MOLAGAVITA,Municipio,6.643290559,-72.81916274,POINT (-72.81916274 6.643290559)
68,SANTANDER,68498,OCAMONTE,Municipio,6.355368858,-73.12211833,POINT (-73.12211833 6.355368858)
68,SANTANDER,68500,OIBA,Municipio,6.225596216,-73.27961515,POINT (-73.27961515 6.225596216)
68,SANTANDER,68502,ONZAGA,Municipio,6.335194548,-72.81205838,POINT (-72.81205838 6.335194548)
68,SANTANDER,68522,PALMAR,Municipio,6.525876964,-73.28247337,POINT (-73.28247337 6.525876964)
68,SANTANDER,68524,PALMAS DEL SOCORRO,Municipio,6.391750107,-73.28273174,POINT (-73.28273174 6.391750107)
68,SANTANDER,68533,PÁRAMO,Municipio,6.416631131,-73.17148232,POINT (-73.17148232 6.416631131)
68,SANTANDER,68547,PIEDECUESTA,Municipio,6.97082104,-73.01481196,POINT (-73.01481196 6.97082104)
68,SANTANDER,68549,PINCHOTE,Municipio,6.513892626,-73.17570986,POINT (-73.17570986 6.513892626)
68,SANTANDER,68572,PUENTE NACIONAL,Municipio,5.831129906,-73.67841815,POINT (-73.67841815 5.831129906)
68,SANTANDER,68573,PUERTO PARRA,Municipio,6.685278856,-73.95761256,POINT (-73.95761256 6.685278856)
68,SANTANDER,68575,PUERTO WILCHES,Municipio,7.398198257,-73.8354696,POINT (-73.8354696 7.398198257)
68,SANTANDER,68615,RIONEGRO,Municipio,7.474226085,-73.37246417,POINT (-73.37246417 7.474226085)
68,SANTANDER,68655,SABANA DE TORRES,Municipio,7.4065422,-73.57131807,POINT (-73.57131807 7.4065422)
68,SANTANDER,68669,SAN ANDRÉS,Municipio,6.796483063,-72.81613202,POINT (-72.81613202 6.796483063)
68,SANTANDER,68673,SAN BENITO,Municipio,6.076525355,-73.55295302,POINT (-73.55295302 6.076525355)
68,SANTANDER,68679,SAN GIL,Municipio,6.550778765,-73.11887911,POINT (-73.11887911 6.550778765)
68,SANTANDER,68682,SAN JOAQUÍN,Municipio,6.459879823,-72.85471883,POINT (-72.85471883 6.459879823)
68,SANTANDER,68684,SAN JOSÉ DE MIRANDA,Municipio,6.629400185,-72.73976423,POINT (-72.73976423 6.629400185)
68,SANTANDER,68686,SAN MIGUEL,Municipio,6.568121541,-72.64322497,POINT (-72.64322497 6.568121541)
68,SANTANDER,68689,SAN VICENTE DE CHUCURÍ,Municipio,6.894292346,-73.53900334,POINT (-73.53900334 6.894292346)
68,SANTANDER,68705,SANTA BÁRBARA,Municipio,6.988084711,-72.89608933,POINT (-72.89608933 6.988084711)
68,SANTANDER,68720,SANTA HELENA DEL OPÓN,Municipio,6.40890734,-73.58206609,POINT (-73.58206609 6.40890734)
68,SANTANDER,68745,SIMACOTA,Municipio,6.494231551,-73.45910992,POINT (-73.45910992 6.494231551)
68,SANTANDER,68755,SOCORRO,Municipio,6.462088241,-73.24436001,POINT (-73.24436001 6.462088241)
68,SANTANDER,68770,SUAITA,Municipio,6.101499739,-73.36225795,POINT (-73.36225795 6.101499739)
68,SANTANDER,68773,SUCRE,Municipio,5.983203734,-73.95936235,POINT (-73.95936235 5.983203734)
68,SANTANDER,68780,SURATÁ,Municipio,7.475402063,-72.98779966,POINT (-72.98779966 7.475402063)
68,SANTANDER,68820,TONA,Municipio,7.170891099,-72.93970443,POINT (-72.93970443 7.170891099)
68,SANTANDER,68855,VALLE DE SAN JOSÉ,Municipio,6.434578919,-73.10997171,POINT (-73.10997171 6.434578919)
68,SANTANDER,68861,VÉLEZ,Municipio,6.00741043,-73.69057256,POINT (-73.69057256 6.00741043)
68,SANTANDER,68867,VETAS,Municipio,7.322219563,-72.88156901,POINT (-72.88156901 7.322219563)
68,SANTANDER,68872,VILLANUEVA,Municipio,6.685867326,-73.16396916,POINT (-73.16396916 6.685867326)
68,SANTANDER,68895,ZAPATOCA,Municipio,6.813725566,-73.30975044,POINT (-73.30975044 6.813725566)
70,SUCRE,70001,SINCELEJO,Municipio,9.316673928,-75.43174967,POINT (-75.43174967 9.316673928)
70,SUCRE,70110,BUENAVISTA,Municipio,9.314972282,-74.98014057,POINT (-74.98014057 9.314972282)
70,SUCRE,70124,CAIMITO,Municipio,8.792311599,-75.13191063,POINT (-75.13191063 8.792311599)
70,SUCRE,70204,COLOSÓ,Municipio,9.494043427,-75.34528693,POINT (-75.34528693 9.494043427)
70,SUCRE,70215,COROZAL,Municipio,9.160624283,-75.23858178,POINT (-75.23858178 9.160624283)
70,SUCRE,70221,COVEÑAS,Municipio,9.394449802,-75.6574915,POINT (-75.6574915 9.394449802)
70,SUCRE,70230,CHALÁN,Municipio,9.569584598,-75.32420908,POINT (-75.32420908 9.569584598)
70,SUCRE,70233,EL ROBLE,Municipio,9.036231591,-75.14575038,POINT (-75.14575038 9.036231591)
70,SUCRE,70235,GALERAS,Municipio,9.135169096,-74.98134706,POINT (-74.98134706 9.135169096)
70,SUCRE,70265,GUARANDA,Municipio,8.337828523,-74.68734926,POINT (-74.68734926 8.337828523)
70,SUCRE,70400,LA UNIÓN,Municipio,8.811997799,-75.28322212,POINT (-75.28322212 8.811997799)
70,SUCRE,70418,LOS PALMITOS,Municipio,9.422380117,-75.21302191,POINT (-75.21302191 9.422380117)
70,SUCRE,70429,MAJAGUAL,Municipio,8.546148134,-74.71037883,POINT (-74.71037883 8.546148134)
70,SUCRE,70473,MORROA,Municipio,9.392496685,-75.32718744,POINT (-75.32718744 9.392496685)
70,SUCRE,70508,OVEJAS,Municipio,9.549655271,-75.18855916,POINT (-75.18855916 9.549655271)
70,SUCRE,70523,PALMITO,Municipio,9.334940293,-75.56199027,POINT (-75.56199027 9.334940293)
70,SUCRE,70670,SAMPUÉS,Municipio,9.165188649,-75.36027422,POINT (-75.36027422 9.165188649)
70,SUCRE,70678,SAN BENITO ABAD,Municipio,8.835634919,-74.96469398,POINT (-74.96469398 8.835634919)
70,SUCRE,70702,SAN JUAN DE BETULIA,Municipio,9.292019071,-75.21363579,POINT (-75.21363579 9.292019071)
70,SUCRE,70708,SAN MARCOS,Municipio,8.589220102,-75.17249955,POINT (-75.17249955 8.589220102)
70,SUCRE,70713,SAN ONOFRE,Municipio,9.814599536,-75.50522919,POINT (-75.50522919 9.814599536)
70,SUCRE,70717,SAN PEDRO,Municipio,9.396835638,-75.03741815,POINT (-75.03741815 9.396835638)
70,SUCRE,70742,SAN LUIS DE SINCÉ,Municipio,9.256299047,-75.09397089,POINT (-75.09397089 9.256299047)
70,SUCRE,70771,SUCRE,Municipio,8.814333477,-74.74753131,POINT (-74.74753131 8.814333477)
70,SUCRE,70820,SANTIAGO DE TOLÚ,Municipio,9.533810567,-75.53543469,POINT (-75.53543469 9.533810567)
70,SUCRE,70823,SAN JOSÉ DE TOLUVIEJO,Municipio,9.490297716,-75.44451115,POINT (-75.44451115 9.490297716)
73,TOLIMA,73001,IBAGUÉ,Municipio,4.451921427,-75.252591,POINT (-75.252591 4.451921427)
73,TOLIMA,73024,ALPUJARRA,Municipio,3.390015064,-74.94078233,POINT (-74.94078233 3.390015064)
73,TOLIMA,73026,ALVARADO,Municipio,4.582625784,-74.98630686,POINT (-74.98630686 4.582625784)
73,TOLIMA,73030,AMBALEMA,Municipio,4.803365246,-74.80998676,POINT (-74.80998676 4.803365246)
73,TOLIMA,73043,ANZOÁTEGUI,Municipio,4.623390454,-75.20165423,POINT (-75.20165423 4.623390454)
73,TOLIMA,73055,ARMERO,Municipio,5.006758956,-74.84750095,POINT (-74.84750095 5.006758956)
73,TOLIMA,73067,ATACO,Municipio,3.37749064,-75.61373257,POINT (-75.61373257 3.37749064)
73,TOLIMA,73124,CAJAMARCA,Municipio,4.406971283,-75.49745918,POINT (-75.49745918 4.406971283)
73,TOLIMA,73148,CARMEN DE APICALÁ,Municipio,4.123416795,-74.74700246,POINT (-74.74700246 4.123416795)
73,TOLIMA,73152,CASABIANCA,Municipio,5.007003948,-75.19457703,POINT (-75.19457703 5.007003948)
73,TOLIMA,73168,CHAPARRAL,Municipio,3.743693084,-75.58986634,POINT (-75.58986634 3.743693084)
73,TOLIMA,73200,COELLO,Municipio,4.315603867,-74.91470256,POINT (-74.91470256 4.315603867)
73,TOLIMA,73217,COYAIMA,Municipio,3.775490271,-75.14720213,POINT (-75.14720213 3.775490271)
73,TOLIMA,73226,CUNDAY,Municipio,3.98252395,-74.68936908,POINT (-74.68936908 3.98252395)
73,TOLIMA,73236,DOLORES,Municipio,3.597863274,-74.80256674,POINT (-74.80256674 3.597863274)
73,TOLIMA,73268,ESPINAL,Municipio,4.166476969,-74.89352941,POINT (-74.89352941 4.166476969)
73,TOLIMA,73270,FALAN,Municipio,5.079256598,-74.95703372,POINT (-74.95703372 5.079256598)
73,TOLIMA,73275,FLANDES,Municipio,4.242813257,-74.83708638,POINT (-74.83708638 4.242813257)
73,TOLIMA,73283,FRESNO,Municipio,5.186694812,-75.05228995,POINT (-75.05228995 5.186694812)
73,TOLIMA,73319,GUAMO,Municipio,4.076501341,-74.97657287,POINT (-74.97657287 4.076501341)
73,TOLIMA,73347,HERVEO,Municipio,5.068553783,-75.24322959,POINT (-75.24322959 5.068553783)
73,TOLIMA,73349,HONDA,Municipio,5.179416561,-74.78303094,POINT (-74.78303094 5.179416561)
73,TOLIMA,73352,ICONONZO,Municipio,4.133276369,-74.53964257,POINT (-74.53964257 4.133276369)
73,TOLIMA,73408,LÉRIDA,Municipio,4.866034592,-74.92337178,POINT (-74.92337178 4.866034592)
73,TOLIMA,73411,LÍBANO,Municipio,4.877936755,-75.04763076,POINT (-75.04763076 4.877936755)
73,TOLIMA,73443,SAN SEBASTIÁN DE MARIQUITA,Municipio,5.235322593,-74.90668089,POINT (-74.90668089 5.235322593)
73,TOLIMA,73449,MELGAR,Municipio,4.193215498,-74.60517497,POINT (-74.60517497 4.193215498)
73,TOLIMA,73461,MURILLO,Municipio,4.826734468,-75.21993987,POINT (-75.21993987 4.826734468)
73,TOLIMA,73483,NATAGAIMA,Municipio,3.540518203,-75.12200999,POINT (-75.12200999 3.540518203)
73,TOLIMA,73504,ORTEGA,Municipio,3.937793962,-75.27824314,POINT (-75.27824314 3.937793962)
73,TOLIMA,73520,PALOCABILDO,Municipio,5.094035737,-75.0184505,POINT (-75.0184505 5.094035737)
73,TOLIMA,73547,PIEDRAS,Municipio,4.433764446,-74.99879938,POINT (-74.99879938 4.433764446)
73,TOLIMA,73555,PLANADAS,Municipio,3.09897343,-75.81684413,POINT (-75.81684413 3.09897343)
73,TOLIMA,73563,PRADO,Municipio,3.729166649,-74.87247706,POINT (-74.87247706 3.729166649)
73,TOLIMA,73585,PURIFICACIÓN,Municipio,3.854281614,-74.87451155,POINT (-74.87451155 3.854281614)
73,TOLIMA,73616,RIOBLANCO,Municipio,3.468077548,-75.85481103,POINT (-75.85481103 3.468077548)
73,TOLIMA,73622,RONCESVALLES,Municipio,4.097861181,-75.59428027,POINT (-75.59428027 4.097861181)
73,TOLIMA,73624,ROVIRA,Municipio,4.216730954,-75.34758364,POINT (-75.34758364 4.216730954)
73,TOLIMA,73671,SALDAÑA,Municipio,3.912542787,-75.01859762,POINT (-75.01859762 3.912542787)
73,TOLIMA,73675,SAN ANTONIO,Municipio,3.926088268,-75.50991004,POINT (-75.50991004 3.926088268)
73,TOLIMA,73678,SAN LUIS,Municipio,4.057271684,-75.16320806,POINT (-75.16320806 4.057271684)
73,TOLIMA,73686,SANTA ISABEL,Municipio,4.740827622,-75.20069946,POINT (-75.20069946 4.740827622)
73,TOLIMA,73770,SUÁREZ,Municipio,3.969210629,-74.84448738,POINT (-74.84448738 3.969210629)
73,TOLIMA,73854,VALLE DE SAN JUAN,Municipio,4.182125647,-75.17148237,POINT (-75.17148237 4.182125647)
73,TOLIMA,73861,VENADILLO,Municipio,4.70988172,-74.92089886,POINT (-74.92089886 4.70988172)
73,TOLIMA,73870,VILLAHERMOSA,Municipio,4.965753461,-75.15592969,POINT (-75.15592969 4.965753461)
73,TOLIMA,73873,VILLARRICA,Municipio,3.854384097,-74.61896623,POINT (-74.61896623 3.854384097)
76,VALLE DEL CAUCA,76001,CALI,Municipio,3.399043723,-76.57649259,POINT (-76.57649259 3.399043723)
76,VALLE DEL CAUCA,76020,ALCALÁ,Municipio,4.6788971,-75.78297932,POINT (-75.78297932 4.6788971)
76,VALLE DEL CAUCA,76036,ANDALUCÍA,Municipio,4.153314228,-76.16063341,POINT (-76.16063341 4.153314228)
76,VALLE DEL CAUCA,76041,ANSERMANUEVO,Municipio,4.795927292,-76.02963049,POINT (-76.02963049 4.795927292)
76,VALLE DEL CAUCA,76054,ARGELIA,Municipio,4.704287864,-76.14164999,POINT (-76.14164999 4.704287864)
76,VALLE DEL CAUCA,76100,BOLÍVAR,Municipio,4.393118861,-76.34982039,POINT (-76.34982039 4.393118861)
76,VALLE DEL CAUCA,76109,BUENAVENTURA,Municipio,3.493340766,-77.11872832,POINT (-77.11872832 3.493340766)
76,VALLE DEL CAUCA,76111,GUADALAJARA DE BUGA,Municipio,3.819854318,-75.98312419,POINT (-75.98312419 3.819854318)
76,VALLE DEL CAUCA,76113,BUGALAGRANDE,Municipio,4.196852991,-76.0896103,POINT (-76.0896103 4.196852991)
76,VALLE DEL CAUCA,76122,CAICEDONIA,Municipio,4.308997973,-75.83672567,POINT (-75.83672567 4.308997973)
76,VALLE DEL CAUCA,76126,CALIMA,Municipio,3.923271619,-76.64260484,POINT (-76.64260484 3.923271619)
76,VALLE DEL CAUCA,76130,CANDELARIA,Municipio,3.382091564,-76.38317663,POINT (-76.38317663 3.382091564)
76,VALLE DEL CAUCA,76147,CARTAGO,Municipio,4.70684716,-75.91790846,POINT (-75.91790846 4.70684716)
76,VALLE DEL CAUCA,76233,DAGUA,Municipio,3.649822218,-76.72039347,POINT (-76.72039347 3.649822218)
76,VALLE DEL CAUCA,76243,EL ÁGUILA,Municipio,4.917562873,-76.06601001,POINT (-76.06601001 4.917562873)
76,VALLE DEL CAUCA,76246,EL CAIRO,Municipio,4.756063701,-76.21502826,POINT (-76.21502826 4.756063701)
76,VALLE DEL CAUCA,76248,EL CERRITO,Municipio,3.656072873,-76.30841784,POINT (-76.30841784 3.656072873)
76,VALLE DEL CAUCA,76250,EL DOVIO,Municipio,4.539979729,-76.28762701,POINT (-76.28762701 4.539979729)
76,VALLE DEL CAUCA,76275,FLORIDA,Municipio,3.304104295,-76.16477307,POINT (-76.16477307 3.304104295)
76,VALLE DEL CAUCA,76306,GINEBRA,Municipio,3.74410441,-76.19082004,POINT (-76.19082004 3.74410441)
76,VALLE DEL CAUCA,76318,GUACARÍ,Municipio,3.759414991,-76.34518277,POINT (-76.34518277 3.759414991)
76,VALLE DEL CAUCA,76364,JAMUNDÍ,Municipio,3.213892389,-76.62760418,POINT (-76.62760418 3.213892389)
76,VALLE DEL CAUCA,76377,LA CUMBRE,Municipio,3.694303106,-76.58989905,POINT (-76.58989905 3.694303106)
76,VALLE DEL CAUCA,76400,LA UNIÓN,Municipio,4.537937391,-76.10328983,POINT (-76.10328983 4.537937391)
76,VALLE DEL CAUCA,76403,LA VICTORIA,Municipio,4.483511142,-75.96677303,POINT (-75.96677303 4.483511142)
76,VALLE DEL CAUCA,76497,OBANDO,Municipio,4.597588666,-75.9491997,POINT (-75.9491997 4.597588666)
76,VALLE DEL CAUCA,76520,PALMIRA,Municipio,3.558392876,-76.22779972,POINT (-76.22779972 3.558392876)
76,VALLE DEL CAUCA,76563,PRADERA,Municipio,3.42063665,-76.17841841,POINT (-76.17841841 3.42063665)
76,VALLE DEL CAUCA,76606,RESTREPO,Municipio,3.806494973,-76.53489853,POINT (-76.53489853 3.806494973)
76,VALLE DEL CAUCA,76616,RIOFRÍO,Municipio,4.109500298,-76.37105443,POINT (-76.37105443 4.109500298)
76,VALLE DEL CAUCA,76622,ROLDANILLO,Municipio,4.443571848,-76.16824249,POINT (-76.16824249 4.443571848)
76,VALLE DEL CAUCA,76670,SAN PEDRO,Municipio,3.98143244,-76.20836168,POINT (-76.20836168 3.98143244)
76,VALLE DEL CAUCA,76736,SEVILLA,Municipio,4.193411919,-75.88818163,POINT (-75.88818163 4.193411919)
76,VALLE DEL CAUCA,76823,TORO,Municipio,4.638421279,-76.08106176,POINT (-76.08106176 4.638421279)
76,VALLE DEL CAUCA,76828,TRUJILLO,Municipio,4.233268116,-76.34292699,POINT (-76.34292699 4.233268116)
76,VALLE DEL CAUCA,76834,TULUÁ,Municipio,4.02840797,-76.03250379,POINT (-76.03250379 4.02840797)
76,VALLE DEL CAUCA,76845,ULLOA,Municipio,4.707718947,-75.77835903,POINT (-75.77835903 4.707718947)
76,VALLE DEL CAUCA,76863,VERSALLES,Municipio,4.644242641,-76.25924483,POINT (-76.25924483 4.644242641)
76,VALLE DEL CAUCA,76869,VIJES,Municipio,3.74365889,-76.47064718,POINT (-76.47064718 3.74365889)
76,VALLE DEL CAUCA,76890,YOTOCO,Municipio,3.904130354,-76.39080435,POINT (-76.39080435 3.904130354)
76,VALLE DEL CAUCA,76892,YUMBO,Municipio,3.595913669,-76.5109879,POINT (-76.5109879 3.595913669)
